*b	L0ÁÁbšÂb¢Šªb‚‚b‚‚‚b¢‚b¢’Êb‚‚b‚‚‚b¢šb¢’²b‚‚b‚‚‚bšÂRº‚j¤D	5EÕ
%UjÅIr‚b‚rªbjŠrÊbj‚rŠb‚rŠb‚rŠb’rÂbšr¢bj¢rŠbj‚r²bjŠrªbj‚r’bj’r’bbbbbbbbbbbbbbbbbbbbbbbbbbbbR’ºj¤D	5EÕÊ%UjÅ	r‚b‚r‚b‚r‚bj‚r‚b‚r‚bj‚r‚b‚r‚b‚r‚b‚r‚b‚r‚bj‚rŠb‚r‚bj‚r‚bbbbbbbbbbbbbbbbbbbbbbbbbbbbR‚Õ¤ˆ	ÕUŠÕIS“&)ºšÂŠršÊÊÊÊÂ’ÂbŠ’bŠ‚ŠŠ²šš¢šbÊbj¢º‚’šr’Ê¢‚b
Á’Âb²ªŠb‚b‚b’‚ª’bÊºšÂŠršÊÊÊÊÂ’ÂbÊb’b‚r‚‚‚bšb‚Rª*Õ¤ˆ	ÕUŠÕi©I“Ó§¦MLL—Lœœ,-50155.67,-119717596.806,21891,46,92885,1,840,13,0,1,9204361.38,-12417690.62,21472026.69,2062.97,1833.57,195.41,299.57,0.00,3.36,5.20,0,0,2,-7.88,0.00,0,0,0,0*0A
$PSTMTS,2,405,22781408.250,-39082.37,-93286052.332,5379,38,90605,17,863,12,0,0,0,0,0,0,0,0,0,0,0,0,0,0,0,0,0,0,0,0,0*33
$PSTMTS,3,15,22760871.938,-44353.42,-119609167.715,21763,42,92545,129,746,12,0,1,2013513.06,-26180894.44,-2419420.00,451.60,-218.13,3106.06,-94307.16,0.00,3.62,5.11,0,0,2,-8.56,0.00,0,0,0,0*1E
$PSTMTS,2,415,22760786.062,-34561.10,-93201597.588,5379,40,90205,270,811,11,0,0,0,0,0,0,0,0,0,0,0,0,0,0,0,0,0,0,0,0,0*01
$PSTMTS,2,21,22412232.312,-45932.11,-117777081.685,21763,45,92306,35,777,12,0,1,-20311511.94,-5613396.88,16879427.25,1822.78,-854.20,2020.69,-59507.37,0.00,3.28,3.80,2,0,2,-6.36,0.00,0,0,0,0*27
$PSTMTS,3,26,23602065.688,-45166.35,-124029685.782,21891,43,92062,14,701,13,0,1,-17119537.47,3700093.78,19994093.00,-1806.55,-1791.43,-1196.52,58171.57,0.00,5.03,7.11,2,0,2,-10.51,0.00,0,0,0,0*26
$PSTMTS,2,426,23601978.750,-35194.66,-96646162.344,5379,38,89782,109,831,12,0,0,0,0,0,0,0,0,0,0,0,0,0,0,0,0,0,0,0,0,0*0A
$PSTMTS,3,29,20271283.688,-46939.12,-106526312.690,21891,48,91933,64,749,13,0,1,-5559121.62,-19688661.91,16906036.91,768.43,-2009.35,-2083.64,62541.52,0.00,2.16,2.61,-2,0,2,-4.43,0.00,0,0,0,0*0C
$PSTMTS,2,429,20271194.625,-36575.83,-83007156.587,5507,43,88433,93,636,13,0,0,0,0,0,0,0,0,0,0,0,0,0,0,0,0,0,0,0,0,0*37
$PSTMTS,2,13,23524876.750,-45432.97,-123624072.073,21891,36,91422,320,1099,13,0,1,12879237.66,-22388652.69,5979879.19,-36.55,813.81,3072.89,-19447.45,0.00,3.77,6.80,0,0,2,-10.37,0.00,0,0,0,0*3F
$PSTMTS,3,88,20349275.438,-46841.27,-108816705.242,21763,40,90653,-66,786,20,24,1,-4680711.69,-10187359.25,22889590.47,2080.77,-2358.80,-621.51,-53997.40,0.00,2.55,3.30,0,0,2,-5.30,0.00,0,0,0,0*1B
$PSTMTS,2,488,20349266.188,-36433.28,-84635191.051,5411,30,85153,-15,2605,18,24,0,0,0,0,0,0,0,0,0,0,0,0,0,0,0,0,0,0,0,0*1F
$PSTMTS,3,92,21810132.938,-50873.14,-116792257.733,21891,41,86208,12,748,20,8,1,7449161.97,-10788251.53,21940046.66,893.17,2852.16,1101.38,5373.27,0.00,3.23,5.08,0,0,2,-7.59,0.00,0,0,0,0*3A
$PSTMTS,2,492,21810123.000,-39569.61,-90838379.482,5411,40,83668,87,699,19,8,0,0,0,0,0,0,0,0,0,0,0,0,0,0,0,0,0,0,0,0*35
$PSTMTS,2,313,23874015.125,-46492.87,-125458784.480,21763,44,67088,42,1213,11,0,1,-10447007.75,-12548273.81,24696024.50,1978.05,-1493.04,79.19,115910.72,0.00,2.44,2.95,0,0,2,-4.92,0.00,0,0,0,0*38
$PSTMTS,3,76,22569201.188,-45290.67,-120772325.748,21763,33,52401,124,2065,2,17,1,-15534089.75,3644999.06,19919458.41,1903.53,-1955.74,1840.47,67663.81,0.00,4.88,7.31,0,0,2,-10.58,0.00,0,0,0,0*27
$PSTMTS,2,476,22569188.125,-35227.53,-93933991.060,5411,41,50085,-40,600,2,17,0,0,0,0,0,0,0,0,0,0,0,0,0,0,0,0,0,0,0,0*1D
$PSTMTS,2,308,22684063.062,-45435.25,-119205550.241,21891,43,87092,170,1526,11,0,1,422551.75,-29097858.75,5389731.22,14.75,541.60,2928.84,1906947.75,0.00,2.69,3.41,-1,0,2,-5.85,0.00,0,0,0,0*1B
$PSTMTS,2,89,21068402.812,-49403.55,-112709398.504,54295,18,846,-54,2794,20,23,0,0,0,0,0,0,0,0,0,0,0,0,0,0,0,0,0,0,0,0*2E
$PSTMTS,2,315,24843901.500,-48113.78,-130555578.142,21763,41,63677,-736,1517,3,0,1,9056356.28,-21729371.03,17959401.09,1379.64,-1162.43,-2102.21,273241.30,0.00,2.86,3.91,0,0,2,-6.33,0.00,0,0,0,0*28
$PSTMTS,2,326,25402541.938,-45335.76,-133491266.739,21891,41,16100,8,1772,2,0,0,0,0,0,0,0,0,0,0,0,0,0,0,0,0,0,0,0,0,0*0B
$PSTMCPU,60.18,-1,261*78
$GPRMC,030243.800,A,3306.02463,N,11718.70231,W,0.0,0.0,060519,,,D*70
$GPGGA,030243.800,3306.02463,N,11718.70231,W,2,12,1.0,022.74,M,-35.2,M,,,0.0,*79
$GNGNS,030243.800,3306.02463,N,11718.70231,W,DDDNN,12,1.0,0022.7,-35.2,,*20
$GPVTG,0.0,T,,M,0.0,N,0.1,K,D*09
$GPGST,030243.800,7.0,4.6,3.1,0.4,4.4,3.2,4.1*6E
$GPGBS,030243.800,4.4,3.2,4.1,,,,*7B
$GNGSA,A,3,05,15,21,26,29,13,,,,,,,1.8,1.0,1.5*2F
$GNGSA,A,3,88,92,76,,,,,,,,,,1.8,1.0,1.5*2A
$GNGSA,A,3,313,308,315,,,,,,,,,,1.8,1.0,1.5*1D
$GNGSA,A,3,,,,,,,,,,,,,1.8,1.0,1.5*20
$GPGSV,2,1,07,29,75,050,48,21,41,293,45,15,29,135,42,05,29,044,46*70
$GPGSV,2,2,07,20,26,223,,13,22,096,36,26,21,311,43,,,,*40
$GLGSV,2,1,06,73,63,091,,88,50,001,30,89,37,071,,92,30,037,40*65
$GLGSV,2,2,06,79,19,251,,76,20,314,41,,,,,,,,*63
$GAGSV,2,1,05,313,58,344,44,308,47,124,43,315,40,068,41,326,20,294,41*6E
$GAGSV,2,2,05,327,18,204,,,,,,,,,,,,,*64
$GPGSV,1,1,04,405,00,000,38,415,00,000,40,429,00,000,43,426,00,000,38*70
$PSTMPRES,1.9,1.0,-2.0,-0.5,-0.2,0.2,2.1,3.4,-3.3,-1.2,-2.5,-0.8,-0.8,,,,,,,,,,,,,,,,,,,,,,,,,,,,*02
$PSTMVRES,0.0,-0.0,-0.0,-0.0,0.0,0.0,0.0,0.0,0.0,-0.0,-0.0,0.0,0.0,,,,,,,,,,,,,,,,,,,,,,,,,,,,*27
$PSTMTG,2052,97381.79999957,12,101572556,9,-47024.3505,a028,651,0,0,2052,97381.79999957,9,2,0.000,3,0*53
$PSTMTS,3,5,22781739.750,-50156.04,-119718849.856,21891,46,93285,21,824,13,0,1,9205186.59,-12416957.22,21472104.81,2063.02,1833.53,195.23,299.57,0.00,3.36,5.20,0,0,2,-7.88,0.00,0,0,0,0*3E
$PSTMTS,2,405,22781646.875,-39082.52,-93287028.693,5379,38,91005,47,859,12,0,0,0,0,0,0,0,0,0,0,0,0,0,0,0,0,0,0,0,0,0*3C
$PSTMTS,3,15,22760669.062,-44353.75,-119608099.884,21763,42,92945,136,728,12,0,1,2013693.72,-26180981.69,-2418177.59,451.58,-217.98,3106.08,-94307.16,0.00,3.62,5.11,0,0,2,-8.56,0.00,0,0,0,0*16
$PSTMTS,2,415,22760582.312,-34561.30,-93200765.524,5379,40,90605,202,799,11,0,0,0,0,0,0,0,0,0,0,0,0,0,0,0,0,0,0,0,0,0*07
$PSTMTS,2,21,22412149.188,-45932.47,-117776645.311,21763,45,92706,32,741,12,0,1,-20310782.81,-5613738.56,16880235.50,1822.86,-854.27,2020.55,-59507.37,0.00,3.28,3.80,2,0,2,-6.36,0.00,0,0,0,0*2D
$PSTMTS,3,26,23601924.250,-45166.90,-124028943.148,21891,43,92462,13,681,13,0,1,-17120260.09,3699377.22,19993614.34,-1806.55,-1791.35,-1196.69,58171.57,0.00,5.03,7.11,2,0,2,-10.51,0.00,0,0,0,0*2B
$PSTMTS,2,426,23601837.625,-35194.93,-96645583.707,5379,38,90182,100,819,12,0,0,0,0,0,0,0,0,0,0,0,0,0,0,0,0,0,0,0,0,0*0F
$PSTMTS,3,29,20271277.500,-46939.52,-106526279.135,21891,48,92333,76,732,13,0,1,-5558814.28,-19689465.66,16905203.44,768.35,-2009.27,-2083.79,62541.52,0.00,2.16,2.61,-2,0,2,-4.43,0.00,0,0,0,0*0C
$PSTMTS,2,429,20271187.875,-36576.29,-83007130.442,5507,43,88833,40,670,13,0,0,0,0,0,0,0,0,0,0,0,0,0,0,0,0,0,0,0,0,0*35
$PSTMTS,2,13,23524756.375,-45433.28,-123623436.043,21891,36,91822,288,1090,13,0,1,12879223.03,-22388327.12,5981108.31,-36.58,813.96,3072.84,-19447.45,0.00,3.77,6.80,0,0,2,-10.37,0.00,0,0,0,0*3B
$PSTMTS,3,88,20349201.250,-46841.68,-108816301.816,21763,40,91053,11,828,20,24,1,-4679879.38,-10188302.78,22889341.81,2080.67,-2358.85,-621.73,-53997.40,0.00,2.55,3.30,0,0,2,-5.30,0.00,0,0,0,0*3F
$PSTMTS,2,488,20349191.938,-36433.61,-84634877.267,5411,30,85553,66,2614,18,24,0,0,0,0,0,0,0,0,0,0,0,0,0,0,0,0,0,0,0,0*30
$PSTMTS,3,92,21810354.812,-50873.50,-116793440.144,21891,41,86608,31,761,20,8,1,7449519.28,-10787110.66,21940487.16,893.28,2852.19,1101.17,5373.27,0.00,3.23,5.08,0,0,2,-7.59,0.00,0,0,0,0*38
$PSTMTS,2,492,21810345.125,-39570.02,-90839299.156,5411,40,84068,115,720,19,8,0,0,0,0,0,0,0,0,0,0,0,0,0,0,0,0,0,0,0,0*06
$PSTMTS,2,313,23873974.750,-46493.16,-125458572.424,21763,44,67488,48,1180,11,0,1,-10446216.53,-12548871.03,24696056.12,1978.00,-1493.11,79.04,115910.72,0.00,2.44,2.95,0,0,2,-4.92,0.00,0,0,0,0*35
$PSTMTS,3,76,22569007.875,-45290.65,-120771288.454,21763,33,52802,190,2145,2,17,1,-15533328.34,3644216.75,19920194.56,1903.53,-1955.87,1840.28,67663.81,0.00,4.88,7.31,0,0,2,-10.58,0.00,0,0,0,0*2C
$PSTMTS,2,476,22568993.938,-35227.75,-93933184.365,5411,41,50486,-39,590,2,17,0,0,0,0,0,0,0,0,0,0,0,0,0,0,0,0,0,0,0,0*17
$PSTMTS,2,308,22683942.250,-45435.66,-119204915.132,21891,43,87492,162,1499,11,0,1,422557.66,-29097642.06,5390902.75,14.78,541.72,2928.81,1906947.75,0.00,2.69,3.41,-1,0,2,-5.85,0.00,0,0,0,0*11
$PSTMTS,2,315,24843983.500,-48113.99,-130556014.412,21763,41,64077,-991,1517,3,0,1,9056908.12,-21729836.03,17958560.19,1379.54,-1162.42,-2102.32,273241.30,0.00,2.86,3.91,0,0,2,-6.33,0.00,0,0,0,0*25
$PSTMTS,2,326,25402413.500,-45336.03,-133490591.826,21891,41,16500,3,1821,2,0,0,0,0,0,0,0,0,0,0,0,0,0,0,0,0,0,0,0,0,0*02
$PSTMCPU,60.18,-1,261*78
$GPRMC,030244.200,A,3306.02463,N,11718.70231,W,0.0,0.0,060519,,,D*7D
$GPGGA,030244.200,3306.02463,N,11718.70231,W,2,12,1.0,022.74,M,-35.2,M,,,0.0,*74
$GNGNS,030244.200,3306.02463,N,11718.70231,W,DDDNN,12,1.0,0022.7,-35.2,,*2D
$GPVTG,0.0,T,,M,0.0,N,0.1,K,D*09
$GPGST,030244.200,7.0,4.6,3.1,0.4,4.4,3.2,4.1*63
$GPGBS,030244.200,4.4,3.2,4.1,,,,*76
$GNGSA,A,3,05,15,21,26,29,13,,,,,,,1.8,1.0,1.5*2F
$GNGSA,A,3,88,92,76,,,,,,,,,,1.8,1.0,1.5*2A
$GNGSA,A,3,313,308,315,,,,,,,,,,1.8,1.0,1.5*1D
$GNGSA,A,3,,,,,,,,,,,,,1.8,1.0,1.5*20
$GPGSV,2,1,07,29,75,050,48,21,41,293,45,15,29,135,42,05,29,044,46*70
$GPGSV,2,2,07,20,26,223,,13,22,096,36,26,21,311,43,,,,*40
$GLGSV,2,1,06,73,63,091,,88,50,001,30,89,37,071,,92,30,037,40*65
$GLGSV,2,2,06,79,19,251,,76,20,314,41,,,,,,,,*63
$GAGSV,2,1,05,313,58,344,44,308,47,124,43,315,40,068,41,326,20,294,41*6E
$GAGSV,2,2,05,327,18,204,,,,,,,,,,,,,*64
$GPGSV,1,1,04,405,00,000,38,415,00,000,39,429,00,000,43,426,00,000,38*7E
$PSTMPRES,1.9,1.0,-2.0,-0.5,-0.2,0.2,2.1,3.4,-3.3,-1.2,-2.5,-0.8,-0.8,,,,,,,,,,,,,,,,,,,,,,,,,,,,*02
$PSTMVRES,0.0,-0.0,-0.0,-0.0,0.0,0.0,0.0,0.0,0.0,-0.0,-0.0,0.0,0.0,,,,,,,,,,,,,,,,,,,,,,,,,,,,*27
$PSTMTG,2052,97382.20000033,12,101981769,9,-47024.3505,a028,651,0,0,2052,97382.20000033,9,2,0.000,3,0*5D
$PSTMTS,3,5,22781978.375,-50156.31,-119720102.581,21891,46,93685,35,836,13,0,1,9206011.81,-12416223.81,21472182.84,2063.06,1833.49,195.04,299.57,0.00,3.36,5.20,0,0,2,-7.88,0.00,0,0,0,0*31
$PSTMTS,2,405,22781885.375,-39082.77,-93288004.899,5379,38,91405,50,827,12,0,0,0,0,0,0,0,0,0,0,0,0,0,0,0,0,0,0,0,0,0*3F
$PSTMTS,3,15,22760465.625,-44354.02,-119607031.735,21763,42,93345,128,724,12,0,1,2013874.34,-26181068.84,-2416935.16,451.55,-217.84,3106.10,-94307.16,0.00,3.62,5.11,0,0,2,-8.56,0.00,0,0,0,0*11
$PSTMTS,2,415,22760379.125,-34561.56,-93199933.197,5379,39,91005,196,772,11,0,0,0,0,0,0,0,0,0,0,0,0,0,0,0,0,0,0,0,0,0*03
$PSTMTS,2,21,22412066.062,-45932.59,-117776208.560,21763,45,93106,11,759,12,0,1,-20310053.66,-5614080.28,16881043.69,1822.93,-854.34,2020.41,-59507.37,0.00,3.28,3.80,2,0,2,-6.36,0.00,0,0,0,0*2A
$PSTMTS,3,26,23601782.500,-45167.28,-124028200.309,21891,43,92862,-20,680,13,0,1,-17120982.72,3698660.69,19993135.62,-1806.54,-1791.27,-1196.86,58171.57,0.00,5.03,7.11,2,0,2,-10.51,0.00,0,0,0,0*00
$PSTMTS,2,426,23601695.438,-35195.20,-96645004.838,5379,38,90582,-18,805,12,0,0,0,0,0,0,0,0,0,0,0,0,0,0,0,0,0,0,0,0,0*1B
$PSTMTS,3,29,20271271.312,-46939.86,-106526245.301,21891,48,92733,81,729,13,0,1,-5558506.97,-19690269.34,16904369.88,768.27,-2009.18,-2083.93,62541.51,0.00,2.16,2.61,-2,0,2,-4.43,0.00,0,0,0,0*01
$PSTMTS,2,429,20271181.625,-36576.51,-83007104.069,5507,43,89233,43,671,13,0,0,0,0,0,0,0,0,0,0,0,0,0,0,0,0,0,0,0,0,0*34
$PSTMTS,2,13,23524636.062,-45433.69,-123622799.821,21891,36,92222,336,1063,13,0,1,12879208.41,-22388001.53,5982337.44,-36.62,814.10,3072.79,-19447.45,0.00,3.77,6.80,0,0,2,-10.37,0.00,0,0,0,0*36
$PSTMTS,3,88,20349125.438,-46841.90,-108815898.045,21763,40,91453,-21,825,20,24,1,-4679047.12,-10189246.34,22889093.09,2080.57,-2358.90,-621.96,-53997.40,0.00,2.55,3.30,0,0,2,-5.30,0.00,0,0,0,0*11
$PSTMTS,2,488,20349117.125,-36433.81,-84634563.157,5411,30,85953,102,2617,18,24,0,0,0,0,0,0,0,0,0,0,0,0,0,0,0,0,0,0,0,0*00
$PSTMTS,3,92,21810573.250,-50873.95,-116794622.334,21891,41,87008,-48,744,20,8,1,7449876.59,-10785969.78,21940927.59,893.39,2852.22,1100.96,5373.27,0.00,3.23,5.08,0,0,2,-7.59,0.00,0,0,0,0*1C
$PSTMTS,2,492,21810565.562,-39570.38,-90840218.607,5411,40,84468,57,724,19,8,0,0,0,0,0,0,0,0,0,0,0,0,0,0,0,0,0,0,0,0*3F
$PSTMTS,2,313,23873934.375,-46493.46,-125458360.028,21763,44,67888,62,1152,11,0,1,-10445425.34,-12549468.28,24696087.72,1977.96,-1493.17,78.89,115910.72,0.00,2.44,2.95,0,0,2,-4.92,0.00,0,0,0,0*31
$PSTMTS,3,76,22568814.250,-45291.17,-120770250.881,21763,33,53202,99,2178,2,17,1,-15532566.94,3643434.38,19920930.62,1903.53,-1956.01,1840.09,67663.81,0.00,4.88,7.31,0,0,2,-10.58,0.00,0,0,0,0*13
$PSTMTS,2,476,22568800.312,-35227.79,-93932377.323,5411,41,50886,-23,605,2,17,0,0,0,0,0,0,0,0,0,0,0,0,0,0,0,0,0,0,0,0*17
$PSTMTS,2,308,22683821.562,-45435.87,-119204279.742,21891,43,87892,224,1565,11,0,1,422563.59,-29097425.34,5392074.28,14.81,541.84,2928.78,1906947.75,0.00,2.69,3.41,-1,0,2,-5.85,0.00,0,0,0,0*11
$PSTMTS,2,315,24844065.375,-48114.18,-130556450.348,21763,41,64477,-1217,1591,3,0,1,9057459.91,-21730301.00,17957719.22,1379.43,-1162.41,-2102.44,273241.30,0.00,2.86,3.91,0,0,2,-6.33,0.00,0,0,0,0*13
$PSTMTS,2,326,25402285.188,-45336.19,-133489916.560,21891,41,16900,78,1816,2,0,0,0,0,0,0,0,0,0,0,0,0,0,0,0,0,0,0,0,0,0*34
$PSTMCPU,58.94,-1,261*77
$GPRMC,030244.600,A,3306.02463,N,11718.70231,W,0.0,0.0,060519,,,D*79
$GPGGA,030244.600,3306.02463,N,11718.70231,W,2,12,1.0,022.74,M,-35.2,M,,,0.0,*70
$GNGNS,030244.600,3306.02463,N,11718.70231,W,DDDNN,12,1.0,0022.7,-35.2,,*29
$GPVTG,0.0,T,,M,0.0,N,0.1,K,D*09
$GPGST,030244.600,7.0,4.6,3.1,0.4,4.4,3.2,4.1*67
$GPGBS,030244.600,4.4,3.2,4.1,,,,*72
$GNGSA,A,3,05,15,21,26,29,13,,,,,,,1.8,1.0,1.5*2F
$GNGSA,A,3,88,92,76,,,,,,,,,,1.8,1.0,1.5*2A
$GNGSA,A,3,313,308,315,,,,,,,,,,1.8,1.0,1.5*1D
$GNGSA,A,3,,,,,,,,,,,,,1.8,1.0,1.5*20
$GPGSV,2,1,07,29,75,050,48,21,41,293,45,15,29,135,43,05,29,044,46*71
$GPGSV,2,2,07,20,26,223,,13,22,096,36,26,21,311,43,,,,*40
$GLGSV,2,1,06,73,63,091,,88,50,001,30,89,37,071,,92,30,037,40*65
$GLGSV,2,2,06,79,19,251,,76,20,314,41,,,,,,,,*63
$GAGSV,2,1,05,313,58,344,44,308,47,124,43,315,40,068,41,326,20,294,41*6E
$GAGSV,2,2,05,327,18,204,,,,,,,,,,,,,*64
$GPGSV,1,1,04,405,00,000,38,415,00,000,40,429,00,000,43,426,00,000,38*70
$PSTMPRES,1.9,1.0,-2.0,-0.5,-0.2,0.2,2.1,3.4,-3.3,-1.2,-2.5,-0.8,-0.8,,,,,,,,,,,,,,,,,,,,,,,,,,,,*02
$PSTMVRES,0.0,-0.0,-0.0,-0.0,0.0,0.0,0.0,0.0,0.0,-0.0,-0.0,0.0,0.0,,,,,,,,,,,,,,,,,,,,,,,,,,,,*27
$PSTMTG,2052,97382.59999914,12,102390980,9,-47024.3505,a028,651,0,0,2052,97382.59999914,9,2,0.000,3,0*5D
$PSTMTS,3,5,22782217.062,-50156.63,-119721355.450,21891,46,94085,51,848,13,0,1,9206837.03,-12415490.41,21472260.84,2063.11,1833.45,194.86,299.57,0.00,3.36,5.20,0,0,2,-7.88,0.00,0,0,0,0*3D
$PSTMTS,2,405,22782124.438,-39083.12,-93288981.144,5379,38,91805,129,785,12,0,0,0,0,0,0,0,0,0,0,0,0,0,0,0,0,0,0,0,0,0*0B
$PSTMTS,3,15,22760262.500,-44354.38,-119605963.699,21763,43,93745,116,695,12,0,1,2014054.94,-26181155.94,-2415692.69,451.53,-217.69,3106.12,-94307.16,0.00,3.62,5.11,0,0,2,-8.56,0.00,0,0,0,0*12
$PSTMTS,2,415,22760175.688,-34561.81,-93199100.928,5379,40,91405,170,744,11,0,0,0,0,0,0,0,0,0,0,0,0,0,0,0,0,0,0,0,0,0*04
$PSTMTS,2,21,22411983.188,-45932.80,-117775771.939,21763,45,93506,28,752,12,0,1,-20309324.47,-5614422.03,16881851.81,1823.00,-854.42,2020.28,-59507.37,0.00,3.28,3.80,2,0,2,-6.36,0.00,0,0,0,0*22
$PSTMTS,3,26,23601641.000,-45167.67,-124027457.592,21891,43,93262,-33,702,13,0,1,-17121705.31,3697944.22,19992656.84,-1806.54,-1791.19,-1197.03,58171.57,0.00,5.03,7.11,2,0,2,-10.51,0.00,0,0,0,0*09
$PSTMTS,2,426,23601554.062,-35195.49,-96644426.121,5379,38,90982,-34,821,12,0,0,0,0,0,0,0,0,0,0,0,0,0,0,0,0,0,0,0,0,0*11
$PSTMTS,3,29,20271264.938,-46940.23,-106526211.620,21891,48,93133,59,711,13,0,1,-5558199.66,-19691073.00,16903536.28,768.19,-2009.10,-2084.08,62541.51,0.00,2.16,2.61,-2,0,2,-4.43,0.00,0,0,0,0*0A
$PSTMTS,2,429,20271175.812,-36576.78,-83007077.837,5507,43,89633,126,668,13,0,0,0,0,0,0,0,0,0,0,0,0,0,0,0,0,0,0,0,0,0*06
$PSTMTS,2,13,23524514.125,-45434.14,-123622163.653,21891,36,92623,153,1014,13,0,1,12879193.75,-22387675.84,5983566.56,-36.65,814.25,3072.74,-19447.45,0.00,3.77,6.80,0,0,2,-10.37,0.00,0,0,0,0*3C
$PSTMTS,3,88,20349049.938,-46842.20,-108815494.333,21763,40,91853,-20,828,20,24,1,-4678214.94,-10190189.91,22888844.25,2080.46,-2358.94,-622.18,-53997.40,0.00,2.55,3.30,0,0,2,-5.30,0.00,0,0,0,0*1D
$PSTMTS,2,488,20349042.062,-36434.05,-84634249.253,5411,30,86353,106,2480,18,24,0,0,0,0,0,0,0,0,0,0,0,0,0,0,0,0,0,0,0,0*01
$PSTMTS,3,92,21810794.125,-50874.32,-116795804.688,21891,41,87408,-27,768,20,8,1,7450233.97,-10784828.88,21941367.94,893.50,2852.25,1100.75,5373.27,0.00,3.23,5.08,0,0,2,-7.59,0.00,0,0,0,0*16
$PSTMTS,2,492,21810786.625,-39570.81,-90841138.227,5411,40,84868,69,688,19,8,0,0,0,0,0,0,0,0,0,0,0,0,0,0,0,0,0,0,0,0*32
$PSTMTS,2,313,23873893.938,-46493.64,-125458147.722,21763,44,68288,41,1129,11,0,1,-10444634.16,-12550065.56,24696119.25,1977.91,-1493.24,78.74,115910.72,0.00,2.44,2.95,0,0,2,-4.92,0.00,0,0,0,0*36
$PSTMTS,3,76,22568619.812,-45291.02,-120769213.363,21763,33,53602,56,2292,2,17,1,-15531805.53,3642651.94,19921666.62,1903.54,-1956.15,1839.90,67663.81,0.00,4.88,7.31,0,0,2,-10.58,0.00,0,0,0,0*17
$PSTMTS,2,476,22568607.375,-35227.98,-93931570.379,5411,41,51286,35,580,2,17,0,0,0,0,0,0,0,0,0,0,0,0,0,0,0,0,0,0,0,0*32
$PSTMTS,2,308,22683700.750,-45436.23,-119203644.472,21891,43,88292,218,1544,11,0,1,422569.53,-29097208.59,5393245.78,14.84,541.95,2928.75,1906947.75,0.00,2.69,3.41,-1,0,2,-5.85,0.00,0,0,0,0*19
$PSTMTS,2,315,24844148.500,-48114.31,-130556886.410,21763,41,64877,-819,1613,3,0,1,9058011.66,-21730765.94,17956878.22,1379.33,-1162.41,-2102.55,273241.30,0.00,2.86,3.91,0,0,2,-6.33,0.00,0,0,0,0*25
$PSTMTS,2,326,25402156.500,-45336.32,-133489241.337,21891,41,17300,-14,1748,2,0,0,0,0,0,0,0,0,0,0,0,0,0,0,0,0,0,0,0,0,0*11
$PSTMCPU,58.94,-1,261*77
$GPRMC,030245.000,A,3306.02479,N,11718.70224,W,0.1,0.0,060519,,,D*70
$GPGGA,030245.000,3306.02479,N,11718.70224,W,2,12,1.0,022.58,M,-35.2,M,,,0.0,*76
$GNGNS,030245.000,3306.02479,N,11718.70224,W,DDDNN,12,1.0,0022.6,-35.2,,*20
$GPVTG,0.0,T,,M,0.1,N,0.1,K,D*08
$GPGST,030245.000,7.0,4.6,3.1,0.4,4.4,3.2,4.1*60
$GPGBS,030245.000,4.4,3.2,4.1,,,,*75
$GNGSA,A,3,05,15,21,26,29,13,,,,,,,1.8,1.0,1.5*2F
$GNGSA,A,3,88,92,76,,,,,,,,,,1.8,1.0,1.5*2A
$GNGSA,A,3,313,308,315,,,,,,,,,,1.8,1.0,1.5*1D
$GNGSA,A,3,,,,,,,,,,,,,1.8,1.0,1.5*20
$GPGSV,2,1,07,29,75,050,48,21,41,293,45,15,29,135,43,05,29,044,46*71
$GPGSV,2,2,07,20,26,223,,13,22,096,36,26,21,311,43,,,,*40
$GLGSV,2,1,06,73,63,091,,88,50,001,30,89,37,071,,92,30,037,40*65
$GLGSV,2,2,06,79,19,251,,76,20,314,41,,,,,,,,*63
$GAGSV,2,1,05,313,58,344,44,308,47,124,43,315,40,068,41,326,20,294,41*6E
$GAGSV,2,2,05,327,18,204,,,,,,,,,,,,,*64
$GPGSV,1,1,04,405,00,000,38,415,00,000,40,429,00,000,43,426,00,000,38*70
$PSTMPRES,1.6,0.3,-1.5,-0.6,0.2,0.2,2.1,3.2,-0.7,-1.8,-2.6,-1.5,0.1,,,,,,,,,,,,,,,,,,,,,,,,,,,,*07
$PSTMVRES,0.0,-0.0,-0.0,0.0,0.0,0.0,-0.0,-0.0,-0.0,0.0,-0.0,-0.0,0.0,,,,,,,,,,,,,,,,,,,,,,,,,,,,*27
$PSTMTG,2052,97382.99999847,12,102800192,9,-47025.3409,a028,651,0,0,2052,97382.99999847,9,2,0.000,3,0*58
$PSTMTS,3,5,22782455.375,-50156.94,-119722608.267,21891,46,94484,17,822,13,0,1,9207662.28,-12414757.06,21472338.75,2063.16,1833.41,194.67,299.57,0.00,3.36,5.20,0,0,2,-7.88,0.00,0,0,0,0*35
$PSTMTS,2,405,22782363.250,-39083.25,-93289957.334,5379,38,92204,128,784,12,0,0,0,0,0,0,0,0,0,0,0,0,0,0,0,0,0,0,0,0,0*01
$PSTMTS,3,15,22760059.250,-44354.65,-119604895.606,21763,43,94144,85,689,12,0,1,2014235.56,-26181243.00,-2414450.25,451.50,-217.54,3106.14,-94307.16,0.00,3.62,5.11,0,0,2,-8.56,0.00,0,0,0,0*27
$PSTMTS,2,415,22759972.375,-34562.01,-93198268.655,5379,40,91804,135,736,11,0,0,0,0,0,0,0,0,0,0,0,0,0,0,0,0,0,0,0,0,0*0D
$PSTMTS,2,21,22411900.062,-45933.15,-117775335.224,21763,45,93905,18,748,12,0,1,-20308595.25,-5614763.81,16882659.91,1823.07,-854.49,2020.14,-59507.37,0.00,3.28,3.80,2,0,2,-6.36,0.00,0,0,0,0*27
$PSTMTS,3,26,23601499.438,-45168.05,-124026714.881,21891,43,93662,-28,696,13,0,1,-17122427.94,3697227.75,19992178.00,-1806.54,-1791.10,-1197.20,58171.58,0.00,5.03,7.11,2,0,2,-10.51,0.00,0,0,0,0*01
$PSTMTS,2,426,23601413.312,-35195.77,-96643847.386,5379,38,91382,35,912,12,0,0,0,0,0,0,0,0,0,0,0,0,0,0,0,0,0,0,0,0,0*3F
$PSTMTS,3,29,20271258.312,-46940.73,-106526177.938,21891,48,93533,23,676,13,0,1,-5557892.41,-19691876.62,16902702.62,768.10,-2009.02,-2084.22,62541.51,0.00,2.16,2.61,-2,0,2,-4.43,0.00,0,0,0,0*07
$PSTMTS,2,429,20271169.125,-36577.18,-83007051.561,5507,43,90033,65,669,13,0,0,0,0,0,0,0,0,0,0,0,0,0,0,0,0,0,0,0,0,0*32
$PSTMTS,2,13,23524393.875,-45434.45,-123621527.526,21891,36,93022,228,993,13,0,1,12879179.06,-22387350.12,5984795.62,-36.69,814.40,3072.68,-19447.45,0.00,3.77,6.80,0,0,2,-10.37,0.00,0,0,0,0*04
$PSTMTS,3,88,20348973.750,-46842.49,-108815090.627,21763,40,92252,-59,809,20,24,1,-4677382.78,-10191133.50,22888595.34,2080.36,-2358.99,-622.40,-53997.40,0.00,2.55,3.30,0,0,2,-5.30,0.00,0,0,0,0*1E
$PSTMTS,2,488,20348966.500,-36434.28,-84633935.238,5411,30,86752,74,2381,18,24,0,0,0,0,0,0,0,0,0,0,0,0,0,0,0,0,0,0,0,0*3C
$PSTMTS,3,92,21811015.688,-50874.86,-116796987.039,21891,41,87807,-5,831,20,8,1,7450591.41,-10783687.97,21941808.19,893.61,2852.28,1100.54,5373.27,0.00,3.23,5.08,0,0,2,-7.59,0.00,0,0,0,0*2E
$PSTMTS,2,492,21811007.000,-39571.10,-90842057.842,5411,40,85267,44,683,19,8,0,0,0,0,0,0,0,0,0,0,0,0,0,0,0,0,0,0,0,0*37
$PSTMTS,2,313,23873853.500,-46493.79,-125457935.300,21763,44,68688,24,1064,11,0,1,-10443843.00,-12550662.88,24696150.72,1977.87,-1493.31,78.58,115910.72,0.00,2.44,2.95,0,0,2,-4.92,0.00,0,0,0,0*36
$PSTMTS,3,76,22568426.188,-45291.28,-120768175.747,21763,33,54001,100,2273,2,17,1,-15531044.09,3641869.44,19922402.56,1903.54,-1956.29,1839.71,67663.81,0.00,4.88,7.31,0,0,2,-10.58,0.00,0,0,0,0*29
$PSTMTS,2,476,22568413.125,-35228.08,-93930763.368,5411,41,51685,10,580,2,17,0,0,0,0,0,0,0,0,0,0,0,0,0,0,0,0,0,0,0,0*35
$PSTMTS,2,308,22683579.750,-45436.73,-119203009.179,21891,43,88692,118,1527,11,0,1,422575.47,-29096991.81,5394417.28,14.87,542.07,2928.71,1906947.75,0.00,2.69,3.41,-1,0,2,-5.85,0.00,0,0,0,0*18
$PSTMTS,2,315,24844232.125,-48114.63,-130557322.339,21763,41,65276,-298,1763,3,0,1,9058563.38,-21731230.91,17956037.19,1379.23,-1162.40,-2102.66,273241.30,0.00,2.86,3.91,0,0,2,-6.33,0.00,0,0,0,0*29
$PSTMTS,2,326,25402027.750,-45336.58,-133488566.029,21891,41,17700,-107,1747,2,0,0,0,0,0,0,0,0,0,0,0,0,0,0,0,0,0,0,0,0,0*2A
$PSTMCPU,58.94,-1,261*77
$GPRMC,030245.400,A,3306.02479,N,11718.70224,W,0.1,0.0,060519,,,D*74
$GPGGA,030245.400,3306.02479,N,11718.70224,W,2,12,1.0,022.58,M,-35.2,M,,,0.0,*72
$GNGNS,030245.400,3306.02479,N,11718.70224,W,DDDNN,12,1.0,0022.6,-35.2,,*24
$GPVTG,0.0,T,,M,0.1,N,0.1,K,D*08
$GPGST,030245.400,7.0,4.6,3.1,0.4,4.4,3.2,4.1*64
$GPGBS,030245.400,4.4,3.2,4.1,,,,*71
$GNGSA,A,3,05,15,21,26,29,13,,,,,,,1.8,1.0,1.5*2F
$GNGSA,A,3,88,92,76,,,,,,,,,,1.8,1.0,1.5*2A
$GNGSA,A,3,313,308,315,,,,,,,,,,1.8,1.0,1.5*1D
$GNGSA,A,3,,,,,,,,,,,,,1.8,1.0,1.5*20
$GPGSV,2,1,07,29,75,050,48,21,41,293,45,15,29,135,43,05,29,044,46*71
$GPGSV,2,2,07,20,26,223,,13,22,096,36,26,21,311,43,,,,*40
$GLGSV,2,1,06,73,63,091,,88,50,001,30,89,37,071,,92,30,037,40*65
$GLGSV,2,2,06,79,19,251,,76,20,314,41,,,,,,,,*63
$GAGSV,2,1,05,313,58,344,44,308,47,124,43,315,40,068,40,326,20,294,41*6F
$GAGSV,2,2,05,327,18,204,,,,,,,,,,,,,*64
$GPGSV,1,1,04,405,00,000,38,415,00,000,40,429,00,000,43,426,00,000,38*70
$PSTMPRES,1.6,0.3,-1.5,-0.6,0.2,0.2,2.1,3.2,-0.7,-1.8,-2.6,-1.5,0.1,,,,,,,,,,,,,,,,,,,,,,,,,,,,*07
$PSTMVRES,0.0,-0.0,-0.0,0.0,0.0,0.0,-0.0,-0.0,-0.0,0.0,-0.0,-0.0,0.0,,,,,,,,,,,,,,,,,,,,,,,,,,,,*27
$PSTMTG,2052,97383.39999716,12,103209404,10,-47025.3409,a028,651,0,0,2052,97383.39999716,10,2,0.000,3,0*50
$PSTMTS,3,5,22782693.562,-50157.21,-119723861.021,21891,46,94884,0,823,13,0,1,9208487.56,-12414023.69,21472416.56,2063.20,1833.37,194.49,299.57,0.00,3.36,5.20,0,0,2,-7.88,0.00,0,0,0,0*09
$PSTMTS,2,405,22782601.375,-39083.52,-93290933.502,5379,38,92604,85,795,12,0,0,0,0,0,0,0,0,0,0,0,0,0,0,0,0,0,0,0,0,0*3D
$PSTMTS,3,15,22759855.938,-44355.12,-119603827.482,21763,43,94544,72,663,12,0,1,2014416.16,-26181329.97,-2413207.78,451.48,-217.40,3106.16,-94307.16,0.00,3.62,5.11,0,0,2,-8.56,0.00,0,0,0,0*20
$PSTMTS,2,415,22759768.938,-34562.30,-93197436.351,5379,40,92204,136,779,11,0,0,0,0,0,0,0,0,0,0,0,0,0,0,0,0,0,0,0,0,0*0B
$PSTMTS,2,21,22411817.000,-45933.49,-117774898.421,21763,45,94306,13,730,12,0,1,-20307866.00,-5615105.62,16883467.94,1823.14,-854.56,2020.00,-59507.37,0.00,3.28,3.80,2,0,2,-6.36,0.00,0,0,0,0*28
$PSTMTS,3,26,23601358.125,-45168.56,-124025972.139,21891,43,94062,-20,658,13,0,1,-17123150.56,3696511.34,19991699.09,-1806.53,-1791.02,-1197.37,58171.58,0.00,5.03,7.11,2,0,2,-10.51,0.00,0,0,0,0*04
$PSTMTS,2,426,23601271.375,-35196.21,-96643268.599,5379,38,91782,-25,939,12,0,0,0,0,0,0,0,0,0,0,0,0,0,0,0,0,0,0,0,0,0*12
$PSTMTS,3,29,20271251.750,-46941.15,-106526144.212,21891,48,93933,-9,683,13,0,1,-5557585.19,-19692680.22,16901868.91,768.02,-2008.94,-2084.36,62541.51,0.00,2.16,2.61,-2,0,2,-4.43,0.00,0,0,0,0*1F
$PSTMTS,2,429,20271162.812,-36577.48,-83007025.285,5507,43,90433,49,652,13,0,0,0,0,0,0,0,0,0,0,0,0,0,0,0,0,0,0,0,0,0*3D
$PSTMTS,2,13,23524272.750,-45434.87,-123620891.301,21891,36,93422,240,975,13,0,1,12879164.38,-22387024.34,5986024.69,-36.72,814.54,3072.63,-19447.45,0.00,3.77,6.80,0,0,2,-10.37,0.00,0,0,0,0*09
$PSTMTS,3,88,20348897.938,-46842.82,-108814686.797,21763,40,92652,-59,812,20,24,1,-4676550.66,-10192077.09,22888346.34,2080.26,-2359.03,-622.62,-53997.40,0.00,2.55,3.30,0,0,2,-5.30,0.00,0,0,0,0*14
$PSTMTS,2,488,20348890.188,-36434.46,-84633621.142,5411,30,87152,9,2508,18,24,0,0,0,0,0,0,0,0,0,0,0,0,0,0,0,0,0,0,0,0*06
$PSTMTS,3,92,21811235.375,-50875.34,-116798169.427,21891,41,88208,-24,916,20,8,1,7450948.88,-10782547.06,21942248.38,893.72,2852.31,1100.33,5373.27,0.00,3.23,5.08,0,0,2,-7.59,0.00,0,0,0,0*1F
$PSTMTS,2,492,21811227.688,-39571.46,-90842977.449,5411,40,85668,47,656,19,8,0,0,0,0,0,0,0,0,0,0,0,0,0,0,0,0,0,0,0,0*3E
$PSTMTS,2,313,23873813.062,-46494.08,-125457722.816,21763,44,69088,38,1017,11,0,1,-10443051.88,-12551260.22,24696182.12,1977.82,-1493.37,78.43,115910.72,0.00,2.44,2.95,0,0,2,-4.92,0.00,0,0,0,0*34
$PSTMTS,3,76,22568232.000,-45291.51,-120767138.025,21763,33,54401,55,2329,2,17,1,-15530282.69,3641086.91,19923138.41,1903.54,-1956.43,1839.51,67663.81,0.00,4.88,7.31,0,0,2,-10.58,0.00,0,0,0,0*10
$PSTMTS,2,476,22568220.000,-35228.24,-93929956.223,5411,41,52085,26,582,2,17,0,0,0,0,0,0,0,0,0,0,0,0,0,0,0,0,0,0,0,0*37
$PSTMTS,2,308,22683458.875,-45436.98,-119202373.841,21891,43,89092,127,1652,11,0,1,422581.41,-29096774.94,5395588.75,14.90,542.19,2928.68,1906947.75,0.00,2.69,3.41,-1,0,2,-5.85,0.00,0,0,0,0*13
$PSTMTS,2,315,24844315.938,-48114.94,-130557758.157,21763,40,65676,140,1773,3,0,1,9059115.06,-21731695.88,17955196.09,1379.12,-1162.40,-2102.77,273241.30,0.00,2.86,3.91,0,0,2,-6.33,0.00,0,0,0,0*0D
$PSTMTS,2,326,25401899.188,-45336.80,-133487890.633,21891,41,18100,-103,1750,2,0,0,0,0,0,0,0,0,0,0,0,0,0,0,0,0,0,0,0,0,0*2F
$PSTMCPU,63.60,-1,261*74
$GPRMC,030245.800,A,3306.02496,N,11718.70216,W,0.0,0.0,060519,,,D*79
$GPGGA,030245.800,3306.02496,N,11718.70216,W,2,12,1.0,022.81,M,-35.2,M,,,0.0,*7A
$GNGNS,030245.800,3306.02496,N,11718.70216,W,DDDNN,12,1.0,0022.8,-35.2,,*26
$GPVTG,0.0,T,,M,0.0,N,0.0,K,D*08
$GPGST,030245.800,7.0,4.6,3.1,0.4,4.4,3.2,4.1*68
$GPGBS,030245.800,4.4,3.2,4.1,,,,*7D
$GNGSA,A,3,05,15,21,26,29,13,,,,,,,1.8,1.0,1.5*2F
$GNGSA,A,3,88,92,76,,,,,,,,,,1.8,1.0,1.5*2A
$GNGSA,A,3,313,308,315,,,,,,,,,,1.8,1.0,1.5*1D
$GNGSA,A,3,,,,,,,,,,,,,1.8,1.0,1.5*20
$GPGSV,2,1,07,29,75,050,48,21,41,293,45,15,29,135,43,05,29,044,46*71
$GPGSV,2,2,07,20,26,223,,13,22,096,36,26,21,311,43,,,,*40
$GLGSV,2,1,06,73,63,091,,88,50,001,30,89,37,071,20,92,30,037,40*67
$GLGSV,2,2,06,79,19,251,,76,20,314,42,,,,,,,,*60
$GAGSV,2,1,05,313,58,344,44,308,47,124,43,315,40,068,40,326,20,294,41*6F
$GAGSV,2,2,05,327,18,204,,,,,,,,,,,,,*64
$GPGSV,1,1,04,405,00,000,38,415,00,000,40,429,00,000,43,426,00,000,38*70
$PSTMPRES,1.8,0.4,-1.6,-1.1,0.5,1.2,1.5,4.3,-1.5,-1.0,-2.7,-0.8,-0.4,,,,,,,,,,,,,,,,,,,,,,,,,,,,*22
$PSTMVRES,0.0,-0.0,-0.0,-0.0,0.0,-0.0,-0.0,-0.0,-0.0,0.0,0.0,-0.0,0.0,,,,,,,,,,,,,,,,,,,,,,,,,,,,*0A
$PSTMTG,2052,97383.79999955,12,103618618,9,-47026.3320,a028,651,0,0,2052,97383.79999955,9,2,0.000,3,0*54
$PSTMTS,3,5,22782931.938,-50157.63,-119725113.924,21891,46,95284,-5,780,13,0,1,9209312.84,-12413290.34,21472494.34,2063.25,1833.33,194.30,299.57,0.00,3.36,5.20,0,0,10,-7.90,0.00,0,0,0,0*13
$PSTMTS,2,405,22782840.125,-39083.80,-93291909.814,5379,38,93004,152,821,12,0,0,0,0,0,0,0,0,0,0,0,0,0,0,0,0,0,0,0,0,0*00
$PSTMTS,3,15,22759653.250,-44355.42,-119602759.441,21763,43,94944,122,668,12,0,1,2014596.75,-26181416.91,-2411965.31,451.45,-217.25,3106.18,-94307.16,0.00,3.62,5.11,0,0,10,-8.91,0.00,0,0,0,0*2A
$PSTMTS,2,415,22759565.688,-34562.64,-93196604.153,5379,40,92604,128,769,11,0,0,0,0,0,0,0,0,0,0,0,0,0,0,0,0,0,0,0,0,0*09
$PSTMTS,2,21,22411733.938,-45933.72,-117774461.747,21763,45,94706,25,755,12,0,1,-20307136.75,-5615447.47,16884275.91,1823.22,-854.63,2019.87,-59507.37,0.00,3.28,3.80,2,0,10,-5.86,0.00,0,0,0,0*10
$PSTMTS,3,26,23601216.875,-45168.97,-124025229.545,21891,43,94462,-13,641,13,0,1,-17123873.16,3695794.94,19991220.12,-1806.53,-1790.94,-1197.54,58171.58,0.00,5.03,7.11,2,0,10,-10.51,0.00,0,0,0,0*36
$PSTMTS,2,426,23601130.000,-35196.72,-96642689.995,5379,38,92182,25,918,12,0,0,0,0,0,0,0,0,0,0,0,0,0,0,0,0,0,0,0,0,0*32
$PSTMTS,3,29,20271245.062,-46941.52,-106526110.623,21891,48,94333,-27,685,13,0,1,-5557278.00,-19693483.78,16901035.12,767.94,-2008.86,-2084.51,62541.51,0.00,2.16,2.61,-2,0,14,-5.04,0.00,0,0,0,0*11
$PSTMTS,2,429,20271156.438,-36577.76,-83006999.147,5507,43,90833,66,633,13,0,0,0,0,0,0,0,0,0,0,0,0,0,0,0,0,0,0,0,0,0*37
$PSTMTS,2,13,23524152.188,-45435.41,-123620255.304,21891,36,93822,286,937,13,0,1,12879149.69,-22386698.50,5987253.75,-36.76,814.69,3072.58,-19447.45,0.00,3.77,6.80,0,0,14,-10.72,0.00,0,0,0,0*34
$PSTMTS,3,88,20348821.875,-46843.22,-108814283.185,21763,40,93053,-67,769,20,24,1,-4675718.56,-10193020.72,22888097.25,2080.16,-2359.08,-622.84,-53997.40,0.00,2.55,3.30,0,0,2,-5.30,0.00,0,0,0,0*18
$PSTMTS,2,488,20348812.812,-36434.78,-84633307.179,5411,30,87553,-115,2578,18,24,0,0,0,0,0,0,0,0,0,0,0,0,0,0,0,0,0,0,0,0*21
$PSTMTS,3,92,21811457.188,-50875.95,-116799351.987,21891,41,88608,-4,894,20,8,1,7451306.38,-10781406.12,21942688.47,893.84,2852.34,1100.12,5373.27,0.00,3.23,5.08,0,0,2,-7.59,0.00,0,0,0,0*23
$PSTMTS,2,492,21811449.250,-39571.88,-90843897.223,5411,40,86068,91,638,19,8,0,0,0,0,0,0,0,0,0,0,0,0,0,0,0,0,0,0,0,0*31
$PSTMTS,2,313,23873772.500,-46494.29,-125457510.442,21763,44,69488,-26,998,11,0,1,-10442261.09,-12551857.34,24696213.44,1977.75,-1493.42,78.28,115910.72,0.00,2.44,2.95,0,0,2,-4.92,0.00,0,0,0,0*26
$PSTMTS,3,76,22568037.375,-45291.91,-120766100.497,21763,33,54801,-5,2536,2,17,1,-15529521.28,3640304.31,19923874.16,1903.54,-1956.56,1839.32,67663.81,0.00,4.88,7.31,0,0,2,-10.58,0.00,0,0,0,0*02
$PSTMTS,2,476,22568026.188,-35228.46,-93929149.184,5411,42,52485,46,552,2,17,0,0,0,0,0,0,0,0,0,0,0,0,0,0,0,0,0,0,0,0*32
$PSTMTS,2,308,22683338.188,-45437.36,-119201738.640,21891,43,89492,184,1597,11,0,1,422587.38,-29096558.06,5396760.22,14.93,542.30,2928.65,1906947.75,0.00,2.69,3.41,-1,0,2,-5.84,0.00,0,0,0,0*12
$PSTMTS,2,315,24844399.188,-48115.20,-130558194.143,21763,40,66077,258,1795,3,0,1,9059666.69,-21732160.81,17954354.97,1379.02,-1162.39,-2102.88,273241.30,0.00,2.86,3.91,0,0,2,-6.33,0.00,0,0,0,0*06
$PSTMTS,2,326,25401770.438,-45336.94,-133487215.287,21891,41,18500,-162,1655,2,0,0,0,0,0,0,0,0,0,0,0,0,0,0,0,0,0,0,0,0,0*27
$PSTMCPU,63.60,-1,261*74
$GPRMC,030246.200,A,3306.02496,N,11718.70216,W,0.0,0.0,060519,,,D*70
$GPGGA,030246.200,3306.02496,N,11718.70216,W,2,12,1.0,022.81,M,-35.2,M,,,0.0,*73
$GNGNS,030246.200,3306.02496,N,11718.70216,W,DDDNN,12,1.0,0022.8,-35.2,,*2F
$GPVTG,0.0,T,,M,0.0,N,0.0,K,D*08
$GPGST,030246.200,7.0,4.6,3.1,0.4,4.4,3.2,4.1*61
$GPGBS,030246.200,4.4,3.2,4.1,,,,*74
$GNGSA,A,3,05,15,21,26,29,13,,,,,,,1.8,1.0,1.5*2F
$GNGSA,A,3,88,92,76,,,,,,,,,,1.8,1.0,1.5*2A
$GNGSA,A,3,313,308,315,,,,,,,,,,1.8,1.0,1.5*1D
$GNGSA,A,3,,,,,,,,,,,,,1.8,1.0,1.5*20
$GPGSV,2,1,07,29,75,050,48,21,41,293,45,15,29,135,43,05,29,044,46*71
$GPGSV,2,2,07,20,26,223,,13,22,096,36,26,21,311,43,,,,*40
$GLGSV,2,1,06,73,63,091,,88,50,001,30,89,37,071,,92,30,037,40*65
$GLGSV,2,2,06,79,19,251,,76,20,314,42,,,,,,,,*60
$GAGSV,2,1,05,313,58,344,44,308,47,124,43,315,40,068,40,326,20,294,42*6C
$GAGSV,2,2,05,327,18,204,,,,,,,,,,,,,*64
$GPGSV,1,1,04,405,00,000,38,415,00,000,40,429,00,000,43,426,00,000,38*70
$PSTMPRES,1.8,0.4,-1.6,-1.1,0.5,1.2,1.5,4.3,-1.5,-1.0,-2.7,-0.8,-0.4,,,,,,,,,,,,,,,,,,,,,,,,,,,,*22
$PSTMVRES,0.0,-0.0,-0.0,-0.0,0.0,-0.0,-0.0,-0.0,-0.0,0.0,0.0,-0.0,0.0,,,,,,,,,,,,,,,,,,,,,,,,,,,,*0A
$PSTMTG,2052,97384.19999934,12,104027830,9,-47026.3320,a028,651,0,0,2052,97384.19999934,9,2,0.000,3,0*5D
$PSTMTS,3,5,22783170.250,-50158.03,-119726366.552,21891,46,95684,-3,782,13,0,1,9210138.16,-12412557.03,21472572.03,2063.30,1833.29,194.12,299.57,0.00,3.36,5.20,0,0,10,-7.90,0.00,0,0,0,0*1F
$PSTMTS,2,405,22783078.562,-39084.13,-93292885.879,5379,38,93404,142,787,12,0,0,0,0,0,0,0,0,0,0,0,0,0,0,0,0,0,0,0,0,0*03
$PSTMTS,3,15,22759449.625,-44355.74,-119601691.245,21763,43,95345,90,648,12,0,1,2014777.31,-26181503.78,-2410722.84,451.42,-217.11,3106.20,-94307.16,0.00,3.62,5.11,0,0,10,-8.91,0.00,0,0,0,0*12
$PSTMTS,2,415,22759362.875,-34562.98,-93195771.771,5379,40,93005,130,737,11,0,0,0,0,0,0,0,0,0,0,0,0,0,0,0,0,0,0,0,0,0*05
$PSTMTS,2,21,22411651.000,-45933.95,-117774024.821,21763,45,95106,28,734,12,0,1,-20306407.44,-5615789.31,16885083.84,1823.29,-854.71,2019.73,-59507.36,0.00,3.28,3.80,2,0,10,-5.86,0.00,0,0,0,0*11
$PSTMTS,3,26,23601075.250,-45169.39,-124024486.797,21891,43,94862,-20,620,13,0,1,-17124595.78,3695078.56,19990741.06,-1806.52,-1790.86,-1197.71,58171.58,0.00,5.03,7.11,2,0,10,-10.51,0.00,0,0,0,0*3F
$PSTMTS,2,426,23600989.250,-35196.92,-96642111.211,5379,38,92582,64,913,12,0,0,0,0,0,0,0,0,0,0,0,0,0,0,0,0,0,0,0,0,0*3B
$PSTMTS,3,29,20271238.812,-46941.90,-106526076.864,21891,48,94733,-7,665,13,0,1,-5556970.84,-19694287.31,16900201.28,767.86,-2008.78,-2084.65,62541.51,0.00,2.16,2.61,-2,0,14,-5.04,0.00,0,0,0,0*20
$PSTMTS,2,429,20271149.375,-36578.07,-83006972.820,5507,43,91233,1,630,13,0,0,0,0,0,0,0,0,0,0,0,0,0,0,0,0,0,0,0,0,0*0A
$PSTMTS,2,13,23524032.000,-45435.72,-123619619.046,21891,36,94222,304,920,13,0,1,12879135.00,-22386372.59,5988482.75,-36.79,814.83,3072.53,-19447.45,0.00,3.77,6.80,0,0,14,-10.72,0.00,0,0,0,0*38
$PSTMTS,3,88,20348744.812,-46843.57,-108813879.229,21763,40,93453,-119,783,20,24,1,-4674886.53,-10193964.34,22887848.06,2080.06,-2359.13,-623.06,-53997.40,0.00,2.55,3.30,0,0,2,-5.30,0.00,0,0,0,0*21
$PSTMTS,2,488,20348739.000,-36435.30,-84632993.054,5411,30,87953,46,2649,18,24,0,0,0,0,0,0,0,0,0,0,0,0,0,0,0,0,0,0,0,0*3E
$PSTMTS,3,92,21811680.250,-50876.46,-116800534.326,21891,41,89008,50,845,20,8,1,7451663.94,-10780265.19,21943128.47,893.95,2852.36,1099.91,5373.27,0.00,3.23,5.08,0,0,2,-7.59,0.00,0,0,0,0*31
$PSTMTS,2,492,21811669.625,-39572.32,-90844816.832,5411,40,86468,65,618,19,8,0,0,0,0,0,0,0,0,0,0,0,0,0,0,0,0,0,0,0,0*3C
$PSTMTS,2,313,23873732.000,-46494.74,-125457297.765,21763,44,69888,-23,1077,11,0,1,-10441470.00,-12552454.72,24696244.72,1977.70,-1493.48,78.13,115910.72,0.00,2.44,2.95,0,0,2,-4.92,0.00,0,0,0,0*13
$PSTMTS,3,76,22567844.312,-45292.05,-120765062.461,21763,34,55201,79,2560,2,17,1,-15528759.84,3639521.66,19924609.84,1903.54,-1956.70,1839.13,67663.81,0.00,4.88,7.31,0,0,2,-10.58,0.00,0,0,0,0*10
$PSTMTS,2,476,22567831.750,-35228.68,-93928341.932,5411,42,52885,31,568,2,17,0,0,0,0,0,0,0,0,0,0,0,0,0,0,0,0,0,0,0,0*37
$PSTMTS,2,308,22683217.312,-45437.85,-119201103.269,21891,43,89892,161,1564,11,0,1,422593.34,-29096341.09,5397931.66,14.96,542.42,2928.61,1906947.75,0.00,2.69,3.41,-1,0,2,-5.84,0.00,0,0,0,0*1A
$PSTMTS,2,315,24844482.875,-48115.59,-130558629.842,21763,40,66477,538,1834,3,0,1,9060218.25,-21732625.78,17953513.81,1378.91,-1162.38,-2102.99,273241.30,0.00,2.86,3.91,0,0,2,-6.33,0.00,0,0,0,0*06
$PSTMTS,2,326,25401642.000,-45337.30,-133486539.721,21891,42,18900,-56,1575,2,0,0,0,0,0,0,0,0,0,0,0,0,0,0,0,0,0,0,0,0,0*1E
$PSTMCPU,56.79,-1,261*7A
$GPRMC,030246.600,A,3306.02496,N,11718.70216,W,0.0,0.0,060519,,,D*74
$GPGGA,030246.600,3306.02496,N,11718.70216,W,2,12,1.0,022.81,M,-35.2,M,,,0.0,*77
$GNGNS,030246.600,3306.02496,N,11718.70216,W,DDDNN,12,1.0,0022.8,-35.2,,*2B
$GPVTG,0.0,T,,M,0.0,N,0.0,K,D*08
$GPGST,030246.600,7.0,4.6,3.1,0.4,4.4,3.2,4.1*65
$GPGBS,030246.600,4.4,3.2,4.1,,,,*70
$GNGSA,A,3,05,15,21,26,29,13,,,,,,,1.8,1.0,1.5*2F
$GNGSA,A,3,88,92,76,,,,,,,,,,1.8,1.0,1.5*2A
$GNGSA,A,3,313,308,315,,,,,,,,,,1.8,1.0,1.5*1D
$GNGSA,A,3,,,,,,,,,,,,,1.8,1.0,1.5*20
$GPGSV,2,1,07,29,75,050,48,21,41,293,45,15,29,135,43,05,29,044,46*71
$GPGSV,2,2,07,20,26,223,,13,22,096,36,26,21,311,43,,,,*40
$GLGSV,2,1,06,73,63,091,38,88,50,001,30,89,37,071,,92,30,037,40*6E
$GLGSV,2,2,06,79,19,251,,76,20,314,42,,,,,,,,*60
$GAGSV,2,1,05,313,58,344,44,308,47,124,43,315,40,068,40,326,20,294,41*6F
$GAGSV,2,2,05,327,18,204,,,,,,,,,,,,,*64
$GPGSV,1,1,04,405,00,000,38,415,00,000,40,429,00,000,43,426,00,000,38*70
$PSTMPRES,1.8,0.4,-1.6,-1.1,0.5,1.2,1.5,4.3,-1.5,-1.0,-2.7,-0.8,-0.4,,,,,,,,,,,,,,,,,,,,,,,,,,,,*22
$PSTMVRES,0.0,-0.0,-0.0,-0.0,0.0,-0.0,-0.0,-0.0,-0.0,0.0,0.0,-0.0,0.0,,,,,,,,,,,,,,,,,,,,,,,,,,,,*0A
$PSTMTG,2052,97384.59999815,12,104437041,9,-47026.3320,a028,651,0,0,2052,97384.59999815,9,2,0.000,3,0*56
$PSTMTS,3,5,22783409.000,-50158.36,-119727619.324,21891,46,96085,17,752,13,0,1,9210963.50,-12411823.72,21472649.62,2063.35,1833.25,193.93,299.57,0.00,3.36,5.20,0,0,10,-7.90,0.00,0,0,0,0*0B
$PSTMTS,2,405,22783316.688,-39084.36,-93293862.050,5379,38,93805,112,787,12,0,0,0,0,0,0,0,0,0,0,0,0,0,0,0,0,0,0,0,0,0*0B
$PSTMTS,3,15,22759246.125,-44356.10,-119600623.100,21763,43,95745,57,677,12,0,1,2014957.88,-26181590.59,-2409480.38,451.40,-216.96,3106.22,-94307.16,0.00,3.62,5.11,0,0,10,-8.91,0.00,0,0,0,0*19
$PSTMTS,2,415,22759159.688,-34563.22,-93194939.470,5379,40,93405,117,749,11,0,0,0,0,0,0,0,0,0,0,0,0,0,0,0,0,0,0,0,0,0*0A
$PSTMTS,2,21,22411567.625,-45934.21,-117773587.958,21763,45,95506,-27,769,12,0,1,-20305678.09,-5616131.22,16885891.69,1823.36,-854.78,2019.59,-59507.36,0.00,3.28,3.80,2,0,10,-5.86,0.00,0,0,0,0*37
$PSTMTS,3,26,23600933.938,-45169.98,-124023744.198,21891,43,95262,-5,647,13,0,1,-17125318.38,3694362.25,19990261.94,-1806.52,-1790.78,-1197.88,58171.58,0.00,5.03,7.11,2,0,10,-10.51,0.00,0,0,0,0*05
$PSTMTS,2,426,23600848.062,-35197.27,-96641532.529,5379,38,92982,71,899,12,0,0,0,0,0,0,0,0,0,0,0,0,0,0,0,0,0,0,0,0,0*3A
$PSTMTS,3,29,20271232.312,-46942.38,-106526043.237,21891,48,95133,-2,634,13,0,1,-5556663.72,-19695090.78,16899367.41,767.78,-2008.70,-2084.80,62541.51,0.00,2.16,2.61,-2,0,14,-5.04,0.00,0,0,0,0*2D
$PSTMTS,2,429,20271142.625,-36578.45,-83006946.630,5507,43,91633,-23,602,13,0,0,0,0,0,0,0,0,0,0,0,0,0,0,0,0,0,0,0,0,0*17
$PSTMTS,2,13,23523912.250,-45436.19,-123618982.922,21891,36,94622,427,870,13,0,1,12879120.25,-22386046.62,5989711.75,-36.83,814.98,3072.48,-19447.45,0.00,3.77,6.80,0,0,14,-10.72,0.00,0,0,0,0*3E
$PSTMTS,3,88,20348670.000,-46843.90,-108813475.433,21763,40,93853,-43,753,20,24,1,-4674054.53,-10194908.03,22887598.81,2079.95,-2359.17,-623.28,-53997.40,0.00,2.55,3.30,0,0,2,-5.30,0.00,0,0,0,0*10
$PSTMTS,2,488,20348663.000,-36435.63,-84632678.969,5411,30,88353,0,2700,18,24,0,0,0,0,0,0,0,0,0,0,0,0,0,0,0,0,0,0,0,0*00
$PSTMTS,3,92,21811901.625,-50876.98,-116801716.916,21891,41,89408,25,798,20,8,1,7452021.53,-10779124.25,21943568.38,894.06,2852.39,1099.70,5373.27,0.00,3.23,5.08,0,0,2,-7.59,0.00,0,0,0,0*33
$PSTMTS,2,492,21811890.750,-39572.68,-90845736.613,5411,40,86868,44,602,19,8,0,0,0,0,0,0,0,0,0,0,0,0,0,0,0,0,0,0,0,0*3D
$PSTMTS,2,313,23873691.562,-46494.95,-125457085.197,21763,44,70288,-3,1038,11,0,1,-10440678.91,-12553052.12,24696275.94,1977.66,-1493.55,77.98,115910.72,0.00,2.44,2.95,0,0,2,-4.92,0.00,0,0,0,0*2F
$PSTMTS,3,76,22567649.625,-45292.42,-120764024.628,21763,34,55601,-9,2335,2,17,1,-15527998.44,3638738.94,19925345.47,1903.54,-1956.84,1838.94,67663.81,0.00,4.88,7.31,0,0,2,-10.58,0.00,0,0,0,0*05
$PSTMTS,2,476,22567638.250,-35228.85,-93927534.692,5411,42,53285,68,542,2,17,0,0,0,0,0,0,0,0,0,0,0,0,0,0,0,0,0,0,0,0*37
$PSTMTS,2,308,22683096.438,-45438.31,-119200467.965,21891,43,90292,115,1583,11,0,1,422599.34,-29096124.12,5399103.09,14.99,542.53,2928.58,1906947.75,0.00,2.69,3.41,-1,0,2,-5.84,0.00,0,0,0,0*1D
$PSTMTS,2,315,24844566.625,-48115.91,-130559065.611,21763,40,66877,765,1785,3,0,1,9060769.81,-21733090.72,17952672.59,1378.81,-1162.38,-2103.10,273241.30,0.00,2.86,3.91,0,0,2,-6.33,0.00,0,0,0,0*09
$PSTMTS,2,326,25401513.438,-45337.45,-133485864.178,21891,41,19300,-41,1616,2,0,0,0,0,0,0,0,0,0,0,0,0,0,0,0,0,0,0,0,0,0*10
$PSTMCPU,56.79,-1,261*7A
$GPRMC,030247.000,A,3306.02497,N,11718.70229,W,0.1,0.0,060519,,,D*7F
$GPGGA,030247.000,3306.02497,N,11718.70229,W,2,12,1.0,023.07,M,-35.2,M,,,0.0,*72
$GNGNS,030247.000,3306.02497,N,11718.70229,W,DDDNN,12,1.0,0023.1,-35.2,,*29
$GPVTG,0.0,T,,M,0.1,N,0.1,K,D*08
$GPGST,030247.000,7.5,4.6,3.1,0.4,4.4,3.2,4.1*67
$GPGBS,030247.000,4.4,3.2,4.1,,,,*77
$GNGSA,A,3,05,15,21,26,29,13,,,,,,,1.8,1.0,1.5*2F
$GNGSA,A,3,88,92,76,,,,,,,,,,1.8,1.0,1.5*2A
$GNGSA,A,3,313,308,315,,,,,,,,,,1.8,1.0,1.5*1D
$GNGSA,A,3,,,,,,,,,,,,,1.8,1.0,1.5*20
$GPGSV,2,1,07,29,75,050,48,21,41,293,45,15,29,135,43,05,29,044,46*71
$GPGSV,2,2,07,20,26,223,,13,22,096,36,26,21,311,43,,,,*40
$GLGSV,2,1,06,73,63,091,39,88,50,001,30,89,37,071,,92,30,037,40*6F
$GLGSV,2,2,06,79,19,251,,76,20,314,42,,,,,,,,*60
$GAGSV,2,1,05,313,58,344,44,308,47,124,43,315,40,068,40,326,20,294,41*6F
$GAGSV,2,2,05,327,18,204,,,,,,,,,,,,,*64
$GPGSV,1,1,04,405,00,000,38,415,00,000,40,429,00,000,43,426,00,000,38*70
$PSTMPRES,2.1,0.2,-0.7,-1.0,0.7,1.1,-1.1,4.2,-4.3,-0.6,-2.3,-0.3,-2.1,,,,,,,,,,,,,,,,,,,,,,,,,,,,*0A
$PSTMVRES,0.0,-0.0,-0.0,-0.0,0.0,0.0,0.0,0.0,-0.0,-0.0,-0.0,-0.0,0.0,,,,,,,,,,,,,,,,,,,,,,,,,,,,*27
$PSTMTG,2052,97384.99999943,12,104846254,9,-47027.3236,a028,651,0,0,2052,97384.99999943,9,2,0.000,3,0*5D
$PSTMTS,3,5,22783354.062,-50158.54,-119727332.021,21891,46,96485,5,762,13,0,1,9211788.84,-12411090.44,21472727.16,2063.39,1833.21,193.75,299.57,0.00,3.36,5.20,0,0,10,-7.90,0.00,0,0,0,0*36
$PSTMTS,2,405,22783262.312,-39084.64,-93293638.186,5379,38,94205,125,755,12,0,0,0,0,0,0,0,0,0,0,0,0,0,0,0,0,0,0,0,0,0*05
$PSTMTS,3,15,22758749.625,-44356.44,-119598014.926,21763,43,96145,20,653,12,0,1,2015138.44,-26181677.34,-2408237.88,451.37,-216.81,3106.24,-94307.16,0.00,3.62,5.11,0,0,10,-8.91,0.00,0,0,0,0*1A
$PSTMTS,2,415,22758663.750,-34563.44,-93192907.115,5379,40,93805,139,728,11,0,0,0,0,0,0,0,0,0,0,0,0,0,0,0,0,0,0,0,0,0*0B
$PSTMTS,2,21,22411191.125,-45934.49,-117771611.016,21763,45,95906,-44,776,12,0,1,-20304948.75,-5616473.16,16886699.50,1823.43,-854.85,2019.46,-59507.36,0.00,3.28,3.80,2,0,10,-5.86,0.00,0,0,0,0*3A
$PSTMTS,3,26,23600499.625,-45170.32,-124021461.561,21891,43,95662,10,681,13,0,1,-17126041.00,3693645.94,19989782.75,-1806.52,-1790.70,-1198.05,58171.58,0.00,5.03,7.11,2,0,10,-10.51,0.00,0,0,0,0*17
$PSTMTS,2,426,23600414.125,-35197.65,-96639753.889,5379,38,93382,100,868,12,0,0,0,0,0,0,0,0,0,0,0,0,0,0,0,0,0,0,0,0,0*04
$PSTMTS,3,29,20270933.000,-46942.72,-106524469.553,21891,48,95533,8,627,13,0,1,-5556356.62,-19695894.25,16898533.47,767.70,-2008.62,-2084.94,62541.51,0.00,2.16,2.61,-2,0,14,-5.04,0.00,0,0,0,0*0A
$PSTMTS,2,429,20270843.625,-36578.80,-83005720.379,5507,43,92033,39,615,13,0,0,0,0,0,0,0,0,0,0,0,0,0,0,0,0,0,0,0,0,0*37
$PSTMTS,2,13,23523499.000,-45436.56,-123616806.808,21891,36,95022,380,870,13,0,1,12879105.53,-22385720.59,5990940.75,-36.86,815.13,3072.42,-19447.45,0.00,3.77,6.80,0,0,14,-10.72,0.00,0,0,0,0*3E
$PSTMTS,3,88,20348303.000,-46844.19,-108811505.518,21763,40,94253,39,800,20,24,1,-4673222.56,-10195851.69,22887349.44,2079.85,-2359.22,-623.50,-53997.40,0.00,2.55,3.30,0,0,2,-5.30,0.00,0,0,0,0*35
$PSTMTS,2,488,20348294.688,-36435.57,-84631146.802,5411,30,88753,17,2949,18,24,0,0,0,0,0,0,0,0,0,0,0,0,0,0,0,0,0,0,0,0*39
$PSTMTS,3,92,21811827.750,-50877.30,-116801333.433,21891,41,89808,-58,807,20,8,1,7452379.19,-10777983.28,21944008.22,894.17,2852.42,1099.49,5373.27,0.00,3.23,5.08,0,0,2,-7.59,0.00,0,0,0,0*12
$PSTMTS,2,492,21811818.062,-39573.01,-90845438.385,5411,40,87268,22,589,19,8,0,0,0,0,0,0,0,0,0,0,0,0,0,0,0,0,0,0,0,0*39
$PSTMTS,2,313,23873358.062,-46495.08,-125455332.513,21763,44,70688,24,1050,11,0,1,-10439887.88,-12553649.56,24696307.09,1977.61,-1493.61,77.82,115910.72,0.00,2.44,2.95,0,0,2,-4.92,0.00,0,0,0,0*37
$PSTMTS,3,76,22567163.125,-45292.53,-120761420.736,21763,34,56001,38,2409,2,17,1,-15527237.03,3637956.19,19926081.00,1903.54,-1956.98,1838.75,67663.81,0.00,4.88,7.31,0,0,2,-10.58,0.00,0,0,0,0*1C
$PSTMTS,2,476,22567152.438,-35228.96,-93925509.389,5411,42,53685,114,569,2,17,0,0,0,0,0,0,0,0,0,0,0,0,0,0,0,0,0,0,0,0*02
$PSTMTS,2,308,22682682.125,-45438.63,-119198292.651,21891,43,90692,-36,1599,11,0,1,422605.34,-29095907.06,5400274.53,15.02,542.65,2928.55,1906947.74,0.00,2.69,3.41,-1,0,2,-5.84,0.00,0,0,0,0*0D
$PSTMTS,2,315,24844357.125,-48116.00,-130557961.249,21763,40,67277,857,1773,3,0,1,9061321.31,-21733555.69,17951831.31,1378.71,-1162.37,-2103.21,273241.30,0.00,2.86,3.91,0,0,2,-6.33,0.00,0,0,0,0*05
$PSTMTS,2,326,25401091.938,-45337.74,-133483648.506,21891,41,19700,21,1498,2,0,0,0,0,0,0,0,0,0,0,0,0,0,0,0,0,0,0,0,0,0*30
$PSTMTS,2,73,19663400.250,-47544.83,-105112129.202,21511,39,731,-435,2735,2,1,0,0,0,0,0,0,0,0,0,0,0,0,0,0,0,0,0,0,0,0*1A
$PSTMEPHEM,326,68,04084a064a46086b004020013e3df027f1fc1400f40105aa34e51b45f74346870bccd5d52743281b5ef30304201fa9f50000020071c7ff1a4002fdff727fb60400000000*51
$PSTMCPU,56.79,-1,261*7A
$GPRMC,030247.400,A,3306.02497,N,11718.70229,W,0.1,0.0,060519,,,D*7B
$GPGGA,030247.400,3306.02497,N,11718.70229,W,2,12,1.0,023.07,M,-35.2,M,,,0.0,*76
$GNGNS,030247.400,3306.02497,N,11718.70229,W,DDDNN,12,1.0,0023.1,-35.2,,*2D
$GPVTG,0.0,T,,M,0.1,N,0.1,K,D*08
$GPGST,030247.400,7.5,4.6,3.1,0.4,4.4,3.2,4.1*63
$GPGBS,030247.400,4.4,3.2,4.1,,,,*73
$GNGSA,A,3,05,15,21,26,29,13,,,,,,,1.8,1.0,1.5*2F
$GNGSA,A,3,88,92,76,,,,,,,,,,1.8,1.0,1.5*2A
$GNGSA,A,3,313,308,315,,,,,,,,,,1.8,1.0,1.5*1D
$GNGSA,A,3,,,,,,,,,,,,,1.8,1.0,1.5*20
$GPGSV,2,1,07,29,75,050,48,21,41,293,45,15,29,135,43,05,29,044,46*71
$GPGSV,2,2,07,20,26,223,,13,22,096,36,26,21,311,43,,,,*40
$GLGSV,2,1,06,73,63,091,39,88,50,001,30,89,37,071,,92,30,037,40*6F
$GLGSV,2,2,06,79,19,251,,76,20,314,42,,,,,,,,*60
$GAGSV,2,1,05,313,58,344,44,308,47,124,43,315,40,068,40,326,20,294,41*6F
$GAGSV,2,2,05,327,18,204,,,,,,,,,,,,,*64
$GPGSV,1,1,04,405,00,000,38,415,00,000,40,429,00,000,43,426,00,000,38*70
$PSTMPRES,2.1,0.2,-0.7,-1.0,0.7,1.1,-1.1,4.2,-4.3,-0.6,-2.3,-0.3,-2.1,,,,,,,,,,,,,,,,,,,,,,,,,,,,*0A
$PSTMVRES,0.0,-0.0,-0.0,-0.0,0.0,0.0,0.0,0.0,-0.0,-0.0,-0.0,-0.0,0.0,,,,,,,,,,,,,,,,,,,,,,,,,,,,*27
$PSTMTG,2052,97385.40000020,12,105255467,9,-47027.3236,a028,651,0,0,2052,97385.40000020,9,2,0.000,3,0*52
$PSTMTS,3,5,22783592.562,-50158.87,-119728584.603,21891,46,96885,6,767,13,0,1,9212614.22,-12410357.16,21472804.62,2063.44,1833.17,193.56,299.57,0.00,3.36,5.20,0,0,10,-7.90,0.00,0,0,0,0*3F
$PSTMTS,2,405,22783500.750,-39084.86,-93294614.215,5379,38,94605,51,736,12,0,0,0,0,0,0,0,0,0,0,0,0,0,0,0,0,0,0,0,0,0*3B
$PSTMTS,3,15,22758546.000,-44356.70,-119596946.666,21763,43,96545,-58,651,12,0,1,2015318.97,-26181764.03,-2406995.38,451.35,-216.67,3106.26,-94307.16,0.00,3.62,5.11,0,0,10,-8.91,0.00,0,0,0,0*39
$PSTMTS,2,415,22758460.500,-34563.62,-93192074.693,5379,40,94205,118,718,11,0,0,0,0,0,0,0,0,0,0,0,0,0,0,0,0,0,0,0,0,0*00
$PSTMTS,2,21,22411107.688,-45934.69,-117771173.948,21763,45,96306,-53,788,12,0,1,-20304219.34,-5616815.09,16887507.25,1823.50,-854.92,2019.32,-59507.36,0.00,3.28,3.80,2,0,10,-5.86,0.00,0,0,0,0*30
$PSTMTS,3,26,23600358.438,-45170.67,-124020718.858,21891,43,96062,9,677,13,0,1,-17126763.59,3692929.69,19989303.50,-1806.51,-1790.61,-1198.22,58171.58,0.00,5.03,7.11,2,0,10,-10.51,0.00,0,0,0,0*2D
$PSTMTS,2,426,23600271.688,-35197.87,-96639175.144,5379,38,93782,56,857,12,0,0,0,0,0,0,0,0,0,0,0,0,0,0,0,0,0,0,0,0,0*3D
$PSTMTS,3,29,20270926.688,-46943.09,-106524435.815,21891,48,95933,15,613,13,0,1,-5556049.56,-19696697.69,16897699.44,767.61,-2008.54,-2085.09,62541.51,0.00,2.16,2.61,-2,0,14,-5.04,0.00,0,0,0,0*37
$PSTMTS,2,429,20270837.875,-36578.99,-83005694.099,5507,43,92433,100,622,13,0,0,0,0,0,0,0,0,0,0,0,0,0,0,0,0,0,0,0,0,0*0F
$PSTMTS,2,13,23523378.188,-45436.88,-123616170.622,21891,36,95422,364,859,13,0,1,12879090.78,-22385394.53,5992169.72,-36.89,815.27,3072.37,-19447.45,0.00,3.77,6.80,0,0,14,-10.72,0.00,0,0,0,0*36
$PSTMTS,3,88,20348226.812,-46844.33,-108811101.534,21763,40,94653,9,810,20,24,1,-4672390.62,-10196795.41,22887100.00,2079.75,-2359.26,-623.72,-53997.40,0.00,2.55,3.30,0,0,2,-5.30,0.00,0,0,0,0*0C
$PSTMTS,2,488,20348218.938,-36435.70,-84630832.531,5411,30,89153,11,2936,18,24,0,0,0,0,0,0,0,0,0,0,0,0,0,0,0,0,0,0,0,0*33
$PSTMTS,3,92,21812046.500,-50877.78,-116802515.934,21891,41,90208,-121,771,20,8,1,7452736.88,-10776842.31,21944447.97,894.28,2852.45,1099.28,5373.27,0.00,3.23,5.08,0,0,2,-7.59,0.00,0,0,0,0*22
$PSTMTS,2,492,21812038.125,-39573.36,-90846358.101,5411,40,87668,-13,589,19,8,0,0,0,0,0,0,0,0,0,0,0,0,0,0,0,0,0,0,0,0*11
$PSTMTS,2,313,23873317.562,-46495.28,-125455119.697,21763,44,71088,8,974,11,0,1,-10439096.81,-12554247.03,24696338.22,1977.57,-1493.68,77.67,115910.72,0.00,2.44,2.95,0,0,2,-4.92,0.00,0,0,0,0*36
$PSTMTS,3,76,22566968.938,-45292.47,-120760382.585,21763,34,56401,10,2270,2,17,1,-15526475.59,3637173.34,19926816.47,1903.55,-1957.12,1838.56,67663.81,0.00,4.88,7.31,0,0,2,-10.58,0.00,0,0,0,0*15
$PSTMTS,2,476,22566958.750,-35229.09,-93924701.936,5411,42,54085,101,553,2,17,0,0,0,0,0,0,0,0,0,0,0,0,0,0,0,0,0,0,0,0*02
$PSTMTS,2,308,22682561.375,-45438.95,-119197657.286,21891,43,91092,31,1488,11,0,1,422611.34,-29095690.00,5401445.94,15.05,542.77,2928.51,1906947.74,0.00,2.69,3.41,-1,0,2,-5.84,0.00,0,0,0,0*21
$PSTMTS,2,315,24844440.625,-48116.25,-130558396.805,21763,40,67677,944,1716,3,0,1,9061872.78,-21734020.62,17950990.00,1378.60,-1162.37,-2103.32,273241.30,0.00,2.86,3.91,0,0,2,-6.33,0.00,0,0,0,0*0F
$PSTMTS,2,326,25400963.188,-45337.97,-133482972.742,21891,41,20100,-46,1456,2,0,1,-24001535.22,3720739.16,16921078.00,1411.88,-946.51,2211.79,1379760.38,0.00,5.30,7.20,-13,0,2,-10.93,0.00,0,0,0,0*1D
$PSTMTS,2,73,19663384.062,-47542.45,-105112011.355,21511,39,1131,-130,3501,2,1,0,0,0,0,0,0,0,0,0,0,0,0,0,0,0,0,0,0,0,0*24
$PSTMCPU,61.95,-1,261*7C
$GPRMC,030247.900,A,3306.02515,N,11718.70242,W,0.0,0.0,060519,,,D*71
$GPGGA,030247.900,3306.02515,N,11718.70242,W,2,13,0.9,024.07,M,-35.2,M,,,0.0,*73
$GNGNS,030247.900,3306.02515,N,11718.70242,W,DDDNN,13,0.9,0024.1,-35.2,,*28
$GPVTG,0.0,T,,M,0.0,N,0.0,K,D*08
$GPGST,030247.900,7.5,4.6,3.0,0.4,4.4,3.2,4.1*6F
$GPGBS,030247.900,4.4,3.2,4.1,,,,*7E
$GNGSA,A,3,05,15,21,26,29,13,,,,,,,1.7,0.9,1.4*29
$GNGSA,A,3,88,92,76,,,,,,,,,,1.7,0.9,1.4*2C
$GNGSA,A,3,313,308,315,326,,,,,,,,,1.7,0.9,1.4*2C
$GNGSA,A,3,,,,,,,,,,,,,1.7,0.9,1.4*26
$GPGSV,2,1,07,29,75,050,48,21,41,293,45,15,29,135,42,05,29,044,46*70
$GPGSV,2,2,07,20,26,223,,13,22,096,36,26,21,311,43,,,,*40
$GLGSV,2,1,07,73,63,091,39,88,50,001,30,89,37,071,,92,30,037,40*6E
$GLGSV,2,2,07,68,28,179,,79,19,251,,76,20,314,42,,,,*5A
$GAGSV,2,1,05,313,58,344,44,308,47,124,43,315,40,068,41,326,20,294,41*6E
$GAGSV,2,2,05,327,18,204,,,,,,,,,,,,,*64
$GPGSV,1,1,04,405,00,000,38,415,00,000,40,429,00,000,43,426,00,000,38*70
$PSTMPRES,2.6,1.8,1.6,0.4,1.9,1.9,-0.1,6.3,-0.5,1.2,-2.4,2.0,-1.5,4.2,,,,,,,,,,,,,,,,,,,,,,,,,,,*28
$PSTMVRES,0.0,-0.0,0.0,-0.0,-0.0,0.0,0.0,0.0,0.0,0.0,0.0,0.0,-0.0,0.0,,,,,,,,,,,,,,,,,,,,,,,,,,,*24
$PSTMTG,2052,97385.89999948,13,105766982,9,-47028.2533,a028,651,0,0,2052,97385.89999948,9,2,0.000,3,0*5C
$PSTMTS,3,5,22783890.062,-50159.26,-119730150.411,21891,46,97385,-26,742,13,0,1,9213645.94,-12409440.59,21472901.34,2063.50,1833.12,193.33,299.57,0.00,3.36,5.20,0,0,10,-7.90,0.00,0,0,0,0*26
$PSTMTS,2,405,22783798.562,-39085.13,-93295834.370,5379,38,95105,53,716,12,0,0,0,0,0,0,0,0,0,0,0,0,0,0,0,0,0,0,0,0,0*3F
$PSTMTS,3,15,22758291.500,-44357.15,-119595611.395,21763,42,97045,-130,625,12,0,1,2015544.66,-26181872.34,-2405442.22,451.32,-216.49,3106.29,-94307.16,0.00,3.62,5.11,0,0,10,-8.91,0.00,0,0,0,0*0B
$PSTMTS,2,415,22758206.250,-34564.01,-93191034.236,5379,40,94705,45,728,11,0,0,0,0,0,0,0,0,0,0,0,0,0,0,0,0,0,0,0,0,0*35
$PSTMTS,2,21,22411003.562,-45935.00,-117770627.645,21763,45,96806,-26,737,12,0,1,-20303307.59,-5617242.59,16888516.88,1823.59,-855.02,2019.15,-59507.36,0.00,3.28,3.80,2,0,10,-5.86,0.00,0,0,0,0*36
$PSTMTS,3,26,23600181.688,-45171.17,-124019790.657,21891,43,96562,-11,751,13,0,1,-17127666.84,3692034.41,19988704.34,-1806.51,-1790.51,-1198.43,58171.58,0.00,5.03,7.11,2,0,10,-10.51,0.00,0,0,0,0*35
$PSTMTS,2,426,23600094.438,-35198.46,-96638451.876,5379,38,94282,52,918,12,0,0,0,0,0,0,0,0,0,0,0,0,0,0,0,0,0,0,0,0,0*39
$PSTMTS,3,29,20270918.562,-46943.52,-106524393.767,21891,48,96433,18,590,13,0,1,-5555665.78,-19697701.94,16896656.88,767.51,-2008.43,-2085.27,62541.51,0.00,2.16,2.61,-2,0,14,-5.04,0.00,0,0,0,0*38
$PSTMTS,2,429,20270829.688,-36579.37,-83005661.317,5507,43,92933,67,582,13,0,0,0,0,0,0,0,0,0,0,0,0,0,0,0,0,0,0,0,0,0*32
$PSTMTS,2,13,23523226.562,-45437.23,-123615375.430,21891,36,95922,280,833,13,0,1,12879072.31,-22384986.84,5993705.88,-36.94,815.45,3072.31,-19447.45,0.00,3.77,6.80,0,0,14,-10.72,0.00,0,0,0,0*36
$PSTMTS,3,88,20348131.625,-46844.72,-108810596.534,21763,40,95153,-10,748,20,24,1,-4671350.78,-10197975.03,22886788.09,2079.62,-2359.32,-624.00,-53997.40,0.00,2.55,3.30,0,0,2,-5.30,0.00,0,0,0,0*10
$PSTMTS,2,488,20348124.375,-36436.05,-84630439.847,5411,30,89653,1,2847,18,24,0,0,0,0,0,0,0,0,0,0,0,0,0,0,0,0,0,0,0,0*07
$PSTMTS,3,92,21812321.438,-50878.45,-116803994.210,21891,41,90708,-122,781,20,8,1,7453184.06,-10775416.06,21944997.56,894.42,2852.49,1099.02,5373.27,0.00,3.23,5.08,0,0,2,-7.59,0.00,0,0,0,0*2C
$PSTMTS,2,492,21812314.688,-39573.70,-90847507.800,5411,40,88168,-37,595,19,8,0,0,0,0,0,0,0,0,0,0,0,0,0,0,0,0,0,0,0,0*18
$PSTMTS,2,313,23873266.812,-46495.56,-125454853.730,21763,44,71588,-42,980,11,0,1,-10438108.06,-12554993.88,24696377.00,1977.51,-1493.76,77.48,115910.72,0.00,2.44,2.95,0,0,2,-4.92,0.00,0,0,0,0*23
$PSTMTS,3,76,22566726.562,-45292.77,-120759084.889,21763,34,56901,93,2371,2,17,1,-15525523.84,3636194.75,19927735.69,1903.55,-1957.29,1838.32,67663.81,0.00,4.88,7.31,0,0,2,-10.58,0.00,0,0,0,0*1C
$PSTMTS,2,476,22566714.000,-35229.26,-93923692.671,5411,42,54585,-43,550,2,17,0,0,0,0,0,0,0,0,0,0,0,0,0,0,0,0,0,0,0,0*17
$PSTMTS,2,308,22682410.250,-45439.25,-119196863.094,21891,43,91592,42,1590,11,0,1,422618.88,-29095418.56,5402910.19,15.08,542.91,2928.47,1906947.74,0.00,2.69,3.41,-1,0,2,-5.84,0.00,0,0,0,0*2C
$PSTMTS,2,315,24844544.938,-48116.50,-130558941.279,21763,41,68177,1026,1734,3,0,1,9062562.03,-21734601.81,17949938.31,1378.47,-1162.36,-2103.46,273241.30,0.00,2.86,3.91,0,0,2,-6.33,0.00,0,0,0,0*3B
$PSTMTS,2,326,25400802.438,-45338.16,-133482128.020,21891,41,20600,-52,1582,2,0,1,-24000829.28,3720265.88,16922183.88,1411.94,-946.63,2211.66,1379760.37,0.00,5.30,7.20,-13,0,2,-10.93,0.00,0,0,0,0*16
$PSTMTS,2,73,19663356.500,-47543.27,-105111864.325,21511,39,1631,-74,3482,2,1,0,0,0,0,0,0,0,0,0,0,0,0,0,0,0,0,0,0,0,0*1D
$PSTMCPU,61.95,-1,261*7C
$GPRMC,030248.300,A,3306.02515,N,11718.70242,W,0.0,0.0,060519,,,D*74
$GPGGA,030248.300,3306.02515,N,11718.70242,W,2,13,0.9,024.07,M,-35.2,M,,,0.0,*76
$GNGNS,030248.300,3306.02515,N,11718.70242,W,DDDNN,13,0.9,0024.1,-35.2,,*2D
$GPVTG,0.0,T,,M,0.0,N,0.0,K,D*08
$GPGST,030248.300,7.5,4.6,3.0,0.4,4.4,3.2,4.1*6A
$GPGBS,030248.300,4.4,3.2,4.1,,,,*7B
$GNGSA,A,3,05,15,21,26,29,13,,,,,,,1.7,0.9,1.4*29
$GNGSA,A,3,88,92,76,,,,,,,,,,1.7,0.9,1.4*2C
$GNGSA,A,3,313,308,315,326,,,,,,,,,1.7,0.9,1.4*2C
$GNGSA,A,3,,,,,,,,,,,,,1.7,0.9,1.4*26
$GPGSV,2,1,07,29,75,050,48,21,41,293,45,15,29,135,42,05,29,044,46*70
$GPGSV,2,2,07,20,26,223,,13,22,096,36,26,21,311,43,,,,*40
$GLGSV,2,1,07,73,63,091,39,88,50,001,29,89,37,071,33,92,30,037,40*66
$GLGSV,2,2,07,68,28,179,,79,19,251,,76,20,314,42,,,,*5A
$GAGSV,2,1,05,313,58,344,44,308,47,124,43,315,40,068,41,326,20,294,41*6E
$GAGSV,2,2,05,327,18,204,,,,,,,,,,,,,*64
$GPGSV,1,1,04,405,00,000,38,415,00,000,40,429,00,000,43,426,00,000,38*70
$PSTMPRES,2.6,1.8,1.6,0.4,1.9,1.9,-0.1,6.3,-0.5,1.2,-2.4,2.0,-1.5,4.2,,,,,,,,,,,,,,,,,,,,,,,,,,,*28
$PSTMVRES,0.0,-0.0,0.0,-0.0,-0.0,0.0,0.0,0.0,0.0,0.0,0.0,0.0,-0.0,0.0,,,,,,,,,,,,,,,,,,,,,,,,,,,*24
$PSTMTG,2052,97386.30000024,13,106176195,9,-47028.2533,a028,651,0,0,2052,97386.30000024,9,2,0.000,3,0*56
$PSTMTS,3,5,22784128.375,-50159.65,-119731402.938,21891,46,97785,-45,711,13,0,1,9214471.34,-12408707.34,21472978.66,2063.55,1833.08,193.15,299.57,0.00,3.36,5.20,0,0,10,-7.90,0.00,0,0,0,0*2A
$PSTMTS,2,405,22784037.062,-39085.30,-93296810.352,5379,38,95505,7,715,12,0,0,0,0,0,0,0,0,0,0,0,0,0,0,0,0,0,0,0,0,0*0D
$PSTMTS,3,15,22758087.688,-44357.49,-119594543.071,21763,42,97445,-154,603,12,0,1,2015725.16,-26181958.91,-2404199.72,451.29,-216.34,3106.31,-94307.16,0.00,3.62,5.11,0,0,10,-8.91,0.00,0,0,0,0*00
$PSTMTS,2,415,22758003.312,-34564.28,-93190201.747,5379,40,95105,90,690,11,0,0,0,0,0,0,0,0,0,0,0,0,0,0,0,0,0,0,0,0,0*35
$PSTMTS,2,21,22410920.562,-45935.27,-117770190.439,21763,45,97206,16,701,12,0,1,-20302578.12,-5617584.62,16889324.53,1823.66,-855.09,2019.01,-59507.36,0.00,3.28,3.80,2,0,10,-5.86,0.00,0,0,0,0*1F
$PSTMTS,3,26,23600040.875,-45171.58,-124019047.949,21891,43,96962,42,747,13,0,1,-17128389.47,3691318.22,19988224.94,-1806.50,-1790.43,-1198.60,58171.58,0.00,5.03,7.11,2,0,10,-10.51,0.00,0,0,0,0*12
$PSTMTS,2,426,23599953.125,-35198.73,-96637873.141,5379,38,94682,68,901,12,0,0,0,0,0,0,0,0,0,0,0,0,0,0,0,0,0,0,0,0,0*3C
$PSTMTS,3,29,20270912.125,-46943.94,-106524360.008,21891,48,96833,12,561,13,0,1,-5555358.78,-19698505.28,16895822.72,767.43,-2008.35,-2085.41,62541.51,0.00,2.16,2.61,-2,0,14,-5.04,0.00,0,0,0,0*39
$PSTMTS,2,429,20270823.312,-36579.64,-83005635.024,5507,43,93333,29,586,13,0,0,0,0,0,0,0,0,0,0,0,0,0,0,0,0,0,0,0,0,0*3F
$PSTMTS,2,13,23523104.938,-45437.68,-123614739.201,21891,36,96322,272,844,13,0,1,12879057.53,-22384660.62,5994934.78,-36.97,815.60,3072.26,-19447.45,0.00,3.77,6.80,0,0,14,-10.72,0.00,0,0,0,0*3E
$PSTMTS,3,88,20348056.000,-46844.99,-108810192.432,21763,40,95553,-22,722,20,24,1,-4670518.97,-10198918.78,22886538.44,2079.52,-2359.37,-624.22,-53997.40,0.00,2.55,3.30,0,0,2,-5.30,0.00,0,0,0,0*1E
$PSTMTS,2,488,20348049.688,-36436.29,-84630125.501,5411,29,90053,59,2753,18,24,0,0,0,0,0,0,0,0,0,0,0,0,0,0,0,0,0,0,0,0*32
$PSTMTS,3,92,21812542.125,-50878.81,-116805176.704,21891,41,91108,-88,778,20,8,1,7453541.84,-10774275.06,21945437.12,894.53,2852.51,1098.81,5373.27,0.00,3.23,5.08,0,0,2,-7.59,0.00,0,0,0,0*1C
$PSTMTS,2,492,21812535.875,-39574.07,-90848427.569,5411,40,88568,-16,569,19,8,0,0,0,0,0,0,0,0,0,0,0,0,0,0,0,0,0,0,0,0*1C
$PSTMTS,2,313,23873226.188,-46495.78,-125454640.765,21763,44,71988,-56,981,11,0,1,-10437317.06,-12555591.41,24696407.97,1977.47,-1493.82,77.33,115910.72,0.00,2.44,2.95,0,0,2,-4.92,0.00,0,0,0,0*22
$PSTMTS,3,76,22566532.062,-45293.18,-120758046.562,21763,34,57301,81,2237,2,17,1,-15524762.41,3635411.81,19928470.97,1903.55,-1957.43,1838.13,67663.81,0.00,4.88,7.31,0,0,2,-10.58,0.00,0,0,0,0*16
$PSTMTS,2,476,22566520.062,-35229.41,-93922885.092,5411,42,54985,-6,525,2,17,0,0,0,0,0,0,0,0,0,0,0,0,0,0,0,0,0,0,0,0*2A
$PSTMTS,2,308,22682289.375,-45439.67,-119196227.677,21891,43,91992,56,1590,11,0,1,422624.94,-29095201.38,5404081.56,15.11,543.03,2928.44,1906947.74,0.00,2.69,3.41,-1,0,2,-5.84,0.00,0,0,0,0*2B
$PSTMTS,2,89,21067254.000,-49105.99,-28766485878.019,54279,33,438,817,651,1,23,0,0,0,0,0,0,0,0,0,0,0,0,0,0,0,0,0,0,0,0*3D
$PSTMTS,2,315,24844628.250,-48116.75,-130559376.702,21763,41,68577,983,1615,3,0,1,9063113.41,-21735066.75,17949096.91,1378.37,-1162.35,-2103.57,273241.30,0.00,2.86,3.91,0,0,2,-6.33,0.00,0,0,0,0*0C
$PSTMTS,2,326,25400673.688,-45338.28,-133481452.057,21891,41,21000,-75,1574,2,0,1,-24000264.50,3719887.19,16923068.50,1411.98,-946.73,2211.55,1379760.37,0.00,5.30,7.20,-13,0,2,-10.93,0.00,0,0,0,0*1F
$PSTMTS,2,73,19663334.375,-47544.21,-105111746.662,21511,39,2031,-54,3589,2,1,0,0,0,0,0,0,0,0,0,0,0,0,0,0,0,0,0,0,0,0*18
$PSTMCPU,62.74,-1,261*70
$GPRMC,030248.600,A,3306.02515,N,11718.70242,W,0.0,0.0,060519,,,D*71
$GPGGA,030248.600,3306.02515,N,11718.70242,W,2,13,0.9,024.07,M,-35.2,M,,,0.0,*73
